City,Country,McMeal at McDonalds (or Equivalent Combo Meal),Domestic Beer (0.5 liter draught),Water (1.5 liter bottle),Cappuccino (regular),Apartment (1 bedroom) in City Centre,Apartment (1 bedroom) Outside of Centre,"Basic (Electricity, Heating, Cooling, Water, Garbage) for 85m2 Apartment","Internet (60 Mbps or More, Unlimited Data, Cable/ADSL)","Fitness Club, Monthly Fee for 1 Adult",Average Monthly Net Salary (After Tax),Cost of Living Index,Purchasing Power Index,Safety Index,Health Care Index,Pollution Index,AvgTemperature,Logged GDP per capita,Social support,Healthy life expectancy,Freedom to make life choices,Generosity,Perceptions of corruption,Lat,Long,Population,Overall Score,Employment,Startup,Tourism,Housing,Transport,Health,Food,Internet Speed,Apple Store,Access to Contraception,Gender Equality,Immigration Tolerance,LGBT Friendly,Nightscene,Beer,Festival
Saint Petersburg,Russia,4.4,2.2,0.63,1.96,524.45,344.27,102.17,6.96,26.27,645.94,0.24,0.26,0.61,0.59,0.62,,10.12887192,0.903150737,64.10045624,0.729892612,-0.151153743,0.864802599,59.95,30.3167,5351935.0,,,,,,,,,,,,,,,,,
Istanbul,Turkey,3.82,3.06,0.33,1.84,291.55,177.72,59.33,14.2,25.1,436.0,0.23,0.22,0.52,0.69,0.69,1.0,10.12941933,0.826313555,66.90281677,0.608830452,-0.171046436,0.748197377,41.01,28.9603,15154000.0,54.9,0.8,1.9,9.6,8.4,1.6,1.0,9.2,0.8,4.8,0.5,0.2,0.6,1.6,6.0,7.4,0.5
İzmir,Turkey,3.06,2.29,0.29,1.56,212.22,128.36,51.07,12.89,20.64,392.07,0.21,0.24,0.72,0.73,0.6,,10.12941933,0.826313555,66.90281677,0.608830452,-0.171046436,0.748197377,38.4127,27.1384,4320519.0,,,,,,,,,,,,,,,,,
Helsinki,Finland,8.0,6.5,1.54,3.87,986.93,758.13,82.66,22.31,34.54,2382.56,0.54,0.55,0.75,0.77,0.13,1.0,10.63926697,0.954329729,71.9008255,0.949172199,-0.059482019,0.195444584,60.1756,24.9342,642045.0,96.0,4.2,7.3,5.7,3.1,9.6,4.0,4.2,6.7,4.3,7.6,10.0,9.8,8.0,3.0,1.1,7.4
Chisinau,Moldova,4.15,1.04,0.59,1.25,244.49,177.96,113.46,8.58,26.64,286.95,0.31,0.22,0.76,0.85,0.77,,8.776714325,0.843313575,65.01301575,0.721609175,-0.037741039,0.913314283,47.0056,28.8575,685900.0,,,,,,,,,,,,,,,,,
Milan,Italy,8.0,5.0,0.4,1.46,1099.67,731.69,163.97,28.93,66.62,1601.0,0.56,0.34,0.56,0.72,0.67,1.0,10.48183632,0.889878571,73.60168457,0.66465199,-0.043460999,0.873404682,45.4669,9.19,1351562.0,71.4,3.5,6.3,8.7,3.7,9.3,9.0,2.9,2.4,7.8,1.0,3.0,3.3,0.2,4.0,2.7,3.6
Cairo,Egypt,4.51,1.69,0.29,1.65,188.0,109.76,25.79,14.77,26.19,221.7,0.22,0.15,0.5,0.45,0.92,1.0,9.316541672,0.735447824,61.78015137,0.708354175,-0.196878314,0.787726879,30.0561,31.2394,19372000.0,,,,,,,,,,,,,,,,,
Banja Luka,Bosnia and Herzegovina,3.58,1.02,0.48,0.85,219.72,159.73,141.04,21.34,20.7,430.69,,,,,,,9.455817223,0.829204142,67.80813599,0.651352704,0.098274559,0.933769107,44.7667,17.1833,199191.0,,,,,,,,,,,,,,,,,
Baku,Azerbaijan,4.22,0.84,0.43,2.15,290.07,157.97,42.65,15.51,30.43,294.03,0.22,0.18,0.7,0.44,0.77,,9.687726974,0.819308281,65.50839996,0.786824107,-0.240255281,0.55253756,40.3667,49.8352,2181800.0,,,,,,,,,,,,,,,,,
Guadalajara,Mexico,4.25,1.43,0.73,1.99,309.42,186.98,22.64,27.53,24.59,498.68,0.23,0.25,0.38,0.79,0.66,1.0,9.797797203,0.838665426,68.29902649,0.858709276,-0.175266623,0.806821585,20.6767,-103.3475,5253000.0,71.6,7.2,3.6,5.8,10.0,3.3,1.4,9.6,0.1,4.3,4.6,2.4,1.0,2.8,4.0,9.6,1.9
Kathmandu,Nepal,5.56,2.38,0.28,1.54,155.63,100.89,24.92,16.66,24.02,184.17,0.21,0.14,0.64,0.57,0.96,1.0,7.925357342,0.785512447,63.77917862,0.797565043,0.154168829,0.738099158,27.7167,85.3667,975453.0,,,,,,,,,,,,,,,,,
Hanoi,Vietnam,3.88,0.78,0.59,1.57,318.43,192.28,67.49,9.41,24.06,354.62,0.25,0.2,0.63,0.56,0.89,1.0,8.809545517,0.849987149,67.9527359,0.939592957,-0.094533332,0.79642123,21.0245,105.8412,7785000.0,,,,,,,,,,,,,,,,,
Ho Chi Minh City,Vietnam,3.87,0.78,0.47,1.72,421.19,284.19,51.25,10.42,21.48,347.14,0.26,0.18,0.46,0.59,0.93,,8.809545517,0.849987149,67.9527359,0.939592957,-0.094533332,0.79642123,10.8167,106.6333,13312000.0,,,,,,,,,,,,,,,,,
Mexico City,Mexico,4.77,1.91,0.66,2.0,550.18,342.38,30.09,26.34,49.56,596.3,0.27,0.25,0.31,0.65,0.83,1.0,9.797797203,0.838665426,68.29902649,0.858709276,-0.175266623,0.806821585,19.4333,-99.1333,20996000.0,70.3,5.2,2.5,5.9,8.8,3.9,1.4,9.5,4.0,4.6,4.6,2.4,1.0,3.1,3.0,9.4,1.0
Rome,Italy,8.0,5.0,0.38,1.28,987.37,679.27,171.15,29.64,57.77,1466.06,0.53,0.33,0.48,0.59,0.67,1.0,10.48183632,0.889878571,73.60168457,0.66465199,-0.043460999,0.873404682,41.8931,12.4828,2872800.0,65.0,1.4,2.0,9.3,3.8,4.4,9.0,4.0,4.6,6.6,1.0,3.0,3.3,0.4,4.5,4.9,2.8
Monterrey,Mexico,4.31,1.68,0.79,2.28,342.55,207.9,49.81,25.84,34.28,695.46,0.27,0.31,0.5,0.67,0.72,1.0,9.797797203,0.838665426,68.29902649,0.858709276,-0.175266623,0.806821585,25.6667,-100.3,4295000.0,72.2,6.4,3.3,4.2,9.9,3.6,1.4,9.4,5.6,4.3,4.6,2.4,1.0,1.1,3.0,9.5,2.5
Yekaterinburg,Russia,4.12,1.47,0.46,1.65,332.66,232.83,113.13,7.61,35.51,537.99,0.21,0.3,0.53,0.51,0.77,,10.12887192,0.903150737,64.10045624,0.729892612,-0.151153743,0.864802599,56.8356,60.6128,1468833.0,,,,,,,,,,,,,,,,,
Sarajevo,Bosnia and Herzegovina,4.08,1.79,0.51,1.28,254.49,170.61,140.53,22.77,26.5,486.12,0.27,0.35,0.53,0.57,0.68,,9.455817223,0.829204142,67.80813599,0.651352704,0.098274559,0.933769107,43.8667,18.4167,275524.0,,,,,,,,,,,,,,,,,
Kharkiv,Ukraine,3.75,0.88,0.4,1.03,346.56,217.86,117.46,5.57,18.58,337.4,0.2,0.2,0.52,0.47,0.56,,9.010690689,0.878879368,64.60678101,0.663081884,-0.030933706,0.920636714,50.0,36.2292,1446107.0,,,,,,,,,,,,,,,,,
Kyiv,Ukraine,3.75,1.13,0.49,1.17,589.81,340.8,98.74,5.11,20.92,516.75,0.21,0.25,0.53,0.56,0.66,1.0,9.010690689,0.878879368,64.60678101,0.663081884,-0.030933706,0.920636714,50.45,30.5236,2967000.0,,,,,,,,,,,,,,,,,
Calgary,Canada,6.87,4.81,1.59,3.14,833.74,661.22,132.57,54.67,40.58,2956.33,0.49,0.75,0.66,0.76,0.24,,10.69236851,0.927176654,73.60160065,0.933913231,0.124770768,0.390843362,51.05,-114.0667,1239220.0,,,,,,,,,,,,,,,,,
Tunis,Tunisia,3.19,1.6,0.22,0.67,173.76,121.37,30.66,17.03,22.1,285.79,,,,,,1.0,9.314972878,0.688718557,66.89785767,0.593361557,-0.216413811,0.867590249,36.8008,10.18,1200000.0,,,,,,,,,,,,,,,,,
Edmonton,Canada,6.53,4.12,1.24,2.95,841.34,680.79,154.54,52.56,38.6,2552.22,0.48,0.68,0.57,0.78,0.3,,10.69236851,0.927176654,73.60160065,0.933913231,0.124770768,0.390843362,53.5344,-113.4903,1062643.0,,,,,,,,,,,,,,,,,
Amsterdam,Netherlands,8.0,5.0,0.83,3.13,1584.45,1195.63,169.18,40.47,36.67,2646.66,0.58,0.53,0.66,0.7,0.31,1.0,10.81271172,0.93913883,72.30091858,0.908547819,0.20761244,0.364717126,52.35,4.9166,1031000.0,108.8,4.0,8.9,8.4,1.7,8.0,7.0,4.5,7.1,6.9,5.6,8.0,8.0,10.0,7.3,5.2,8.2
Belgrade,Serbia,5.09,1.7,0.43,1.41,341.08,216.64,135.76,21.45,24.61,437.24,0.28,0.24,0.61,0.53,0.64,1.0,9.680980682,0.881475747,68.21020508,0.726495862,-0.073676221,0.843509018,44.8167,20.4667,1378682.0,,,,,,,,,,,,,,,,,
Odesa,Ukraine,3.67,0.94,0.48,1.19,344.01,232.04,94.58,5.73,20.84,360.47,0.21,0.22,0.46,0.51,0.64,,9.010690689,0.878879368,64.60678101,0.663081884,-0.030933706,0.920636714,46.4775,30.7326,1010783.0,,,,,,,,,,,,,,,,,
Paris,France,8.7,7.0,0.9,3.4,1177.51,837.76,170.29,27.15,39.98,2215.02,0.63,0.46,0.47,0.79,0.65,1.0,10.58422279,0.937103748,73.80193329,0.825467646,-0.130641967,0.583521128,48.8566,2.3522,11020000.0,100.7,1.7,8.5,9.7,1.9,9.7,10.0,1.4,7.4,8.1,8.5,7.6,3.0,7.7,10.0,1.0,4.5
Eindhoven,Netherlands,8.0,5.0,0.81,2.63,965.16,838.0,168.08,36.18,24.24,2603.84,0.55,0.57,0.76,0.73,0.23,,10.81271172,0.93913883,72.30091858,0.908547819,0.20761244,0.364717126,51.43,5.5,398053.0,,,,,,,,,,,,,,,,,
Plovdiv,Bulgaria,4.59,1.28,0.5,1.27,240.77,179.23,79.71,11.57,24.85,514.73,,,,,,,9.869318962,0.937840343,66.80397797,0.745178163,-0.143908441,0.935585141,42.1433,24.7489,384088.0,,,,,,,,,,,,,,,,,
Thessaloníki,Greece,6.5,3.5,0.78,3.21,336.96,269.45,160.39,30.22,31.3,660.51,0.42,0.23,0.52,0.56,0.64,,10.13232613,0.814380348,72.40525818,0.541345119,-0.300907373,0.859931409,40.6333,22.95,315196.0,,,,,,,,,,,,,,,,,
Ottawa,Canada,6.87,4.81,1.21,2.85,961.81,745.27,102.76,43.85,40.21,2904.67,0.48,0.58,0.74,0.75,0.21,,10.69236851,0.927176654,73.60160065,0.933913231,0.124770768,0.390843362,45.4247,-75.695,989567.0,88.2,5.0,6.8,4.9,4.6,1.5,4.3,6.3,6.2,8.6,8.0,5.4,9.3,3.2,0.6,4.4,9.2
Sofia,Bulgaria,4.6,1.53,0.54,1.25,370.72,285.96,89.74,10.38,24.34,708.65,0.29,0.31,0.58,0.57,0.69,1.0,9.869318962,0.937840343,66.80397797,0.745178163,-0.143908441,0.935585141,42.6975,23.3241,1355142.0,,,,,,,,,,,,,,,,,
Rotterdam,Netherlands,8.0,4.0,0.73,2.73,1103.13,844.33,153.76,38.2,28.8,2312.39,0.52,0.55,0.64,0.77,0.42,,10.81271172,0.93913883,72.30091858,0.908547819,0.20761244,0.364717126,51.92,4.48,1005000.0,96.5,3.2,5.1,1.2,7.4,9.4,7.0,7.0,5.9,4.3,5.6,8.0,8.0,5.5,6.0,5.1,7.8
Varna,Bulgaria,4.08,1.02,0.47,1.23,235.36,170.63,75.54,11.2,22.19,511.5,0.28,0.28,0.68,0.62,0.63,,9.869318962,0.937840343,66.80397797,0.745178163,-0.143908441,0.935585141,43.2078,27.9169,369162.0,,,,,,,,,,,,,,,,,
Novi Sad,Serbia,4.42,1.5,0.43,1.11,262.4,195.75,122.93,19.3,22.89,439.58,0.27,0.26,0.6,0.5,0.46,,9.680980682,0.881475747,68.21020508,0.726495862,-0.073676221,0.843509018,45.2644,19.8317,380000.0,,,,,,,,,,,,,,,,,
Utrecht,Netherlands,8.0,5.0,0.8,3.03,1135.77,791.9,193.84,35.06,28.05,2214.18,0.56,0.5,0.72,0.74,0.31,,10.81271172,0.93913883,72.30091858,0.908547819,0.20761244,0.364717126,52.1003,5.12,640000.0,88.6,5.6,6.0,0.3,4.4,1.0,7.0,5.4,7.9,4.3,5.6,8.0,8.0,9.3,4.0,2.9,8.9
Berlin,Germany,7.0,3.5,0.52,2.74,896.5,651.04,231.8,29.08,26.39,2289.46,0.48,0.59,0.59,0.7,0.39,,10.7328186,0.898874462,72.20201874,0.867371082,0.080179386,0.456422031,52.5167,13.3833,3644826.0,103.9,2.3,7.1,8.0,5.9,7.5,5.0,7.1,7.5,5.2,2.6,9.0,6.0,9.1,10.0,7.0,4.6
Beirut,Lebanon,7.19,3.22,0.7,3.82,719.35,393.83,122.43,49.74,65.66,859.89,0.56,0.17,0.53,0.66,0.94,1.0,9.3617239,0.824338138,67.10658264,0.551357508,-0.06121527,0.90225625,33.8869,35.5131,361366.0,,,,,,,,,,,,,,,,,
Austin,United States,7.19,4.49,1.38,3.95,1581.66,995.9,124.12,55.38,34.53,4097.92,0.42,0.86,0.64,0.71,0.36,1.0,10.92576885,0.914219022,68.29949951,0.842619538,0.149891734,0.699715316,30.3004,-97.7522,1687311.0,86.2,8.4,9.7,4.7,2.0,2.7,3.0,2.2,10.0,8.7,6.0,4.0,4.0,3.3,3.0,5.7,8.8
Singapore,Singapore,5.33,6.66,1.11,3.66,1859.98,1174.57,97.79,28.85,88.55,2988.12,0.57,0.56,0.67,0.71,0.33,1.0,11.39552116,0.910268962,76.80458069,0.926645339,0.029879224,0.109784193,1.3,103.8,5745000.0,62.6,9.8,6.6,9.8,0.5,4.0,8.6,3.1,0.6,4.3,1.0,2.6,3.5,1.2,4.0,1.9,1.1
Toronto,Canada,7.56,5.16,1.39,3.1,1474.75,1180.29,95.48,44.42,37.38,2352.69,0.5,0.57,0.6,0.76,0.38,,10.69236851,0.927176654,73.60160065,0.933913231,0.124770768,0.390843362,43.7417,-79.3733,5429524.0,93.1,3.7,8.8,6.7,2.8,5.1,4.3,5.7,6.1,7.6,8.0,5.4,9.3,8.1,1.0,3.8,6.8
Auckland,New Zealand,6.57,5.68,1.31,2.83,1127.81,947.13,99.55,49.79,37.68,2344.96,0.57,0.54,0.54,0.73,0.3,1.0,10.50094318,0.949118972,73.20262909,0.936217487,0.191598073,0.22113885,-36.85,174.7833,1467800.0,94.5,7.1,7.8,6.0,2.9,7.2,2.5,3.9,7.0,4.3,4.8,9.3,9.5,9.5,3.0,2.0,7.7
Podgorica,Montenegro,3.0,1.5,0.7,1.45,307.27,222.86,103.09,23.52,30.0,484.81,,,,,,,9.751860619,0.855314612,68.50534821,0.649565637,-0.075600356,0.783121586,42.4397,19.2661,174515.0,,,,,,,,,,,,,,,,,
Vancouver,Canada,6.87,4.81,1.71,3.05,1424.9,1133.13,62.72,48.94,35.6,2625.31,0.51,0.62,0.64,0.75,0.24,,10.69236851,0.927176654,73.60160065,0.933913231,0.124770768,0.390843362,49.25,-123.1,2264823.0,100.5,6.3,9.5,7.3,1.6,7.9,4.3,3.2,4.2,9.1,8.0,5.4,9.3,9.4,1.0,4.5,9.6
Tokyo,Japan,5.7,4.1,1.07,3.21,1013.36,636.07,162.41,38.33,77.29,2657.42,0.61,0.51,0.77,0.81,0.43,1.0,10.57968903,0.883545935,75.00096893,0.809961379,-0.246910349,0.654558063,35.6897,139.6922,37977000.0,55.3,9.0,1.3,9.0,1.5,2.4,7.8,0.5,1.4,5.1,0.9,0.5,2.0,2.5,4.0,6.8,0.6
Victoria,Canada,6.89,4.82,1.62,3.12,1047.12,872.6,78.71,54.21,36.17,2338.36,0.48,0.58,0.65,0.7,0.15,,10.69236851,0.927176654,73.60160065,0.933913231,0.124770768,0.390843362,48.4283,-123.3647,335696.0,,,,,,,,,,,,,,,,,
Winnipeg,Canada,6.8,4.12,1.53,3.09,679.1,640.46,87.74,48.43,34.77,2068.87,0.48,0.62,0.43,0.69,0.37,,10.69236851,0.927176654,73.60160065,0.933913231,0.124770768,0.390843362,49.8844,-97.1464,705244.0,,,,,,,,,,,,,,,,,
Boston,United States,7.18,6.29,1.58,3.6,2275.95,1716.68,119.59,61.7,51.97,4132.08,0.6,0.66,0.64,0.75,0.27,1.0,10.92576885,0.914219022,68.29949951,0.842619538,0.149891734,0.699715316,42.3188,-71.0846,4688346.0,70.0,7.0,9.9,3.0,0.3,9.0,3.0,1.2,3.0,7.9,6.0,4.0,4.0,5.9,0.6,1.5,3.7
Chicago,United States,7.18,4.94,2.08,3.69,1702.25,1100.17,117.08,57.23,42.52,3717.02,0.54,0.71,0.35,0.66,0.44,1.0,10.92576885,0.914219022,68.29949951,0.842619538,0.149891734,0.699715316,41.8373,-87.6862,8604203.0,74.4,4.6,8.6,3.7,1.2,7.4,3.0,2.3,8.1,5.9,6.0,4.0,4.0,2.7,3.6,3.5,5.8
Almaty,Kazakhstan,3.81,1.07,0.42,1.78,288.22,178.04,58.48,10.47,39.41,374.42,0.2,0.23,0.34,0.48,0.78,1.0,10.11465836,0.934744895,64.60996246,0.811601937,-0.068488635,0.764490843,43.25,76.9,1806833.0,,,,,,,,,,,,,,,,,
Oslo,Norway,11.12,9.0,1.7,4.28,1280.03,990.78,158.58,45.73,42.44,2985.88,0.71,0.55,0.65,0.76,0.24,1.0,11.08780384,0.952486575,73.20078278,0.955750287,0.13453263,0.263218194,59.9111,10.7528,693494.0,92.5,9.5,6.2,6.8,2.3,10.0,7.6,0.7,9.3,4.3,5.3,9.8,8.3,6.0,1.0,0.1,5.4
Frankfurt,Germany,8.0,4.0,0.5,2.74,986.97,723.8,265.52,30.74,45.06,2618.29,0.5,0.69,0.58,0.74,0.38,,10.7328186,0.898874462,72.20201874,0.867371082,0.080179386,0.456422031,50.1136,8.6797,753056.0,87.5,7.9,4.5,6.9,4.1,7.3,5.0,3.6,0.3,7.3,2.6,9.0,6.0,7.9,6.0,5.9,3.2
Bratislava,Slovakia,6.0,2.0,0.59,2.09,635.45,486.91,180.44,15.69,26.77,1059.38,0.35,0.39,0.69,0.58,0.41,1.0,10.34774971,0.922493756,68.90634155,0.749952674,-0.124409303,0.918096125,48.1447,17.1128,429564.0,,,,,,,,,,,,,,,,,
Dallas,United States,6.51,4.49,1.41,3.46,1322.45,961.01,139.51,59.67,32.58,4202.0,0.43,0.94,0.5,0.66,0.42,1.0,10.92576885,0.914219022,68.29949951,0.842619538,0.149891734,0.699715316,32.7936,-96.7662,5743938.0,,,,,,,,,,,,,,,,,
Zagreb,Croatia,5.37,2.01,0.92,1.51,473.12,341.08,174.07,22.12,34.96,903.99,0.36,0.33,0.78,0.66,0.32,1.0,10.07087517,0.874623716,70.21490479,0.714838803,-0.128538325,0.916495264,45.8,15.95,790017.0,,,,,,,,,,,,,,,,,
Hamburg,Germany,8.0,4.0,0.51,2.91,873.12,647.42,232.62,31.29,42.0,2532.52,0.5,0.55,0.57,0.75,0.31,,10.7328186,0.898874462,72.20201874,0.867371082,0.080179386,0.456422031,53.55,10.0,1841179.0,90.4,8.1,4.1,1.8,4.8,5.8,5.0,4.3,7.6,6.7,2.6,9.0,6.0,2.9,9.3,6.5,5.9
Hamilton,Canada,,,,,,,,,,,0.46,0.53,0.48,0.81,0.53,,10.69236851,0.927176654,73.60160065,0.933913231,0.124770768,0.390843362,43.2567,-79.8692,693645.0,,,,,,,,,,,,,,,,,
Kraków,Poland,4.72,2.13,0.47,2.05,513.06,392.83,173.28,12.75,23.27,855.87,0.29,0.31,0.74,0.59,0.71,,10.26512432,0.874257445,69.31113434,0.862055779,-0.205084071,0.686927021,50.0614,19.9372,766739.0,,,,,,,,,,,,,,,,,
Riga,Latvia,5.0,2.9,0.57,2.45,385.07,276.53,172.23,16.2,34.77,806.02,0.37,0.31,0.62,0.61,0.38,1.0,10.17531967,0.918288589,66.8074646,0.671237648,-0.186888844,0.795580089,56.9475,24.1069,698529.0,,,,,,,,,,,,,,,,,
Gdańsk,Poland,4.25,2.13,0.45,2.15,515.0,380.61,169.9,12.32,28.79,865.09,0.3,0.28,0.68,0.5,0.45,,10.26512432,0.874257445,69.31113434,0.862055779,-0.205084071,0.686927021,54.3667,18.6333,464254.0,,,,,,,,,,,,,,,,,
Santiago,Chile,5.2,2.95,0.96,2.19,369.11,349.97,89.62,29.58,26.45,618.33,0.34,0.22,0.45,0.66,0.7,,10.0320549,0.879713595,69.90061951,0.744896293,-0.065668367,0.838239431,-33.45,-70.6667,7007000.0,67.6,5.5,2.9,0.8,8.9,2.8,3.5,8.2,3.6,4.3,2.8,2.2,6.2,0.6,6.0,7.6,1.7
Nairobi,Kenya,6.2,2.04,1.11,2.27,383.88,170.65,46.9,51.91,45.4,327.85,0.26,0.17,0.39,0.57,0.8,1.0,8.02977562,0.702652037,60.09693146,0.829747558,0.294681519,0.831499159,-1.2864,36.8172,5545000.0,,,,,,,,,,,,,,,,,
Abu Dhabi,United Arab Emirates,6.24,9.78,0.62,4.59,1167.16,888.13,116.51,93.29,73.81,2369.85,0.4,0.61,0.88,0.71,0.46,1.0,11.1099987,0.849181116,67.08278656,0.941345513,0.123450845,0.594502211,24.4781,54.3686,1000000.0,,,,,,,,,,,,,,,,,
Houston,United States,6.74,5.39,1.38,4.03,1258.81,859.49,122.34,54.13,32.13,3568.78,0.44,0.91,0.36,0.72,0.56,1.0,10.92576885,0.914219022,68.29949951,0.842619538,0.149891734,0.699715316,29.7863,-95.3889,5464251.0,,,,,,,,,,,,,,,,,
Tbilisi,Georgia,4.05,0.93,0.36,1.4,306.63,184.31,52.69,14.09,30.29,248.07,0.19,0.18,0.77,0.53,0.75,,9.226100922,0.629033029,64.49520874,0.801641524,-0.22892037,0.665944695,41.7225,44.7925,1118035.0,,,,,,,,,,,,,,,,,
Dubai,United Arab Emirates,6.11,11.0,0.55,4.4,1348.79,888.37,156.63,90.42,71.73,2577.55,0.45,0.56,0.83,0.67,0.51,1.0,11.1099987,0.849181116,67.08278656,0.941345513,0.123450845,0.594502211,25.2697,55.3094,2502715.0,,,,,,,,,,,,,,,,,
Bogotá,Colombia,4.4,0.96,0.77,1.18,341.45,245.33,76.59,29.06,23.8,306.08,0.22,0.15,0.37,0.64,0.7,1.0,9.500369072,0.884440243,67.69958496,0.836179912,-0.161235645,0.86457181,4.6126,-74.0705,9464000.0,67.4,2.5,2.1,1.4,9.5,0.4,5.3,9.8,0.2,4.3,3.8,5.0,2.4,1.4,8.8,9.8,0.8
Brno,Czechia,5.16,1.39,0.53,1.88,558.68,439.63,145.16,17.58,29.98,1022.13,0.33,0.4,0.73,0.74,0.43,,10.40416336,0.914430678,70.04793549,0.818537354,-0.230861515,0.85844624,49.1953,16.6083,381346.0,76.2,5.1,0.1,0.5,9.2,7.0,1.9,9.1,8.5,4.3,4.0,1.8,2.2,1.7,6.0,9.7,5.1
Munich,Germany,8.0,3.8,0.58,2.98,1198.0,873.39,242.66,34.09,34.69,2627.51,0.55,0.6,0.82,0.78,0.25,1.0,10.7328186,0.898874462,72.20201874,0.867371082,0.080179386,0.456422031,48.1372,11.5755,1471508.0,102.7,9.4,9.2,6.3,3.4,9.5,5.0,5.8,3.8,7.4,2.6,9.0,6.0,9.0,7.6,6.6,2.1
Poznań,Poland,4.72,2.01,0.39,2.06,443.21,351.37,155.6,11.62,22.13,791.94,0.29,0.28,0.72,0.55,0.58,,10.26512432,0.874257445,69.31113434,0.862055779,-0.205084071,0.686927021,52.4,16.9167,538633.0,,,,,,,,,,,,,,,,,
Las Vegas,United States,7.18,5.39,1.05,3.65,992.86,874.56,138.51,64.64,23.03,3132.38,0.46,0.73,0.44,0.56,0.53,1.0,10.92576885,0.914219022,68.29949951,0.842619538,0.149891734,0.699715316,36.2333,-115.2654,2104198.0,,,,,,,,,,,,,,,,,
London,United Kingdom,7.0,5.83,0.91,3.3,2015.24,1420.02,186.96,37.07,46.02,2756.93,0.58,0.53,0.47,0.71,0.59,1.0,10.60013485,0.93668282,72.30160522,0.834743679,0.263732493,0.435915917,51.5072,-0.1275,10979000.0,97.0,5.4,8.4,9.9,1.1,6.7,6.5,6.5,3.4,5.5,9.5,7.0,5.0,8.2,9.8,2.1,2.0
Los Angeles,United States,7.18,5.39,1.77,4.01,1980.11,1564.78,111.99,55.74,36.78,3968.48,0.55,0.66,0.52,0.61,0.66,1.0,10.92576885,0.914219022,68.29949951,0.842619538,0.149891734,0.699715316,34.1139,-118.4068,12750807.0,78.8,3.9,9.4,8.1,1.0,2.3,3.0,2.1,9.2,6.1,6.0,4.0,4.0,7.5,5.0,3.4,3.8
Panama City,Panama,6.06,2.58,1.46,2.63,811.63,547.73,90.98,41.58,40.47,706.33,0.39,0.21,0.53,0.59,0.65,1.0,10.03423405,0.902094483,69.60301208,0.880366504,-0.153927714,0.851588905,9.0,-79.5,880691.0,,,,,,,,,,,,,,,,,
Seoul,South Korea,5.06,3.11,1.17,3.72,714.76,465.05,150.79,19.76,55.64,2120.34,0.59,0.47,0.74,0.82,0.58,1.0,10.51056671,0.799387157,73.6027298,0.612965107,-0.043404032,0.789067447,37.5833,127.0,21794000.0,62.6,8.6,1.6,9.1,2.7,4.7,1.5,0.4,5.5,4.3,3.0,0.3,2.6,3.6,6.0,7.1,1.6
Warsaw,Poland,4.72,2.36,0.5,2.49,616.05,467.73,147.35,12.7,25.97,979.42,0.31,0.35,0.74,0.61,0.6,1.0,10.26512432,0.874257445,69.31113434,0.862055779,-0.205084071,0.686927021,52.2167,21.0333,1790658.0,67.6,4.3,5.0,1.5,8.5,5.9,1.6,9.7,4.5,4.3,0.6,5.2,1.2,1.5,4.0,8.3,1.5
Prague,Czechia,5.55,1.59,0.53,2.17,805.86,593.84,177.27,19.95,34.67,1183.75,0.35,0.4,0.76,0.75,0.35,1.0,10.40416336,0.914430678,70.04793549,0.818537354,-0.230861515,0.85844624,50.0833,14.4167,1324277.0,96.2,8.8,5.9,8.8,8.2,9.1,1.9,9.0,9.5,4.3,4.0,1.8,2.2,1.3,9.8,9.2,2.4
Wrocław,Poland,4.72,1.89,0.45,2.12,517.55,411.5,162.51,12.26,22.14,848.11,0.29,0.3,0.73,0.58,0.61,,10.26512432,0.874257445,69.31113434,0.862055779,-0.205084071,0.686927021,51.1077,17.0353,638586.0,,,,,,,,,,,,,,,,,
Kuala Lumpur,Malaysia,3.32,3.32,0.52,2.53,478.24,273.76,48.02,26.76,38.52,923.24,0.28,0.41,0.35,0.67,0.67,1.0,10.26251888,0.816509426,67.10215759,0.894626856,0.114726797,0.839302301,3.1478,101.6953,8285000.0,77.2,9.1,7.2,9.4,8.6,6.8,1.7,8.5,2.6,4.3,1.5,0.6,0.9,0.7,4.0,7.3,4.0
New York City,United States,8.09,6.29,2.07,4.22,2854.26,1788.76,116.65,55.18,67.04,4665.46,0.67,0.67,0.53,0.62,0.58,1.0,10.92576885,0.914219022,68.29949951,0.842619538,0.149891734,0.699715316,40.6943,-73.9249,18713220.0,76.6,5.3,9.1,9.5,0.2,6.1,3.0,0.6,6.5,6.2,6.0,4.0,4.0,5.1,7.0,1.3,2.7
Copenhagen,Denmark,10.04,6.69,1.07,5.21,1234.4,919.12,196.67,34.45,36.85,2803.98,0.65,0.57,0.72,0.78,0.21,1.0,10.77400112,0.955990791,72.40250397,0.951444268,0.066201776,0.168489456,55.6786,12.5635,1085000.0,78.8,4.9,8.1,2.5,1.4,4.8,3.3,3.3,7.3,4.3,2.4,7.3,8.5,5.0,8.8,0.9,6.1
Ljubljana,Slovenia,5.0,2.6,0.59,1.48,579.89,448.26,199.61,33.0,40.61,1155.72,0.42,0.37,0.79,0.66,0.23,,10.39232254,0.939575672,71.1029892,0.936142623,-0.080603383,0.817071021,46.05,14.5167,284355.0,,,,,,,,,,,,,,,,,
Chandīgarh,India,3.3,1.9,0.42,1.39,149.06,88.87,60.44,10.73,18.59,380.27,,,,,,,8.849823952,0.592200935,60.21518707,0.881444871,0.057551607,0.772042692,30.7353,76.7911,1026459.0,,,,,,,,,,,,,,,,,
Colombo,Sri Lanka,4.22,1.49,0.49,2.21,325.83,116.89,37.91,13.95,15.47,244.23,0.23,0.13,0.6,0.72,0.61,1.0,9.389969826,0.825374067,67.20006561,0.837633669,0.081129618,0.859001756,6.9167,79.8333,752993.0,,,,,,,,,,,,,,,,,
Kaunas,Lithuania,5.0,2.7,0.76,2.12,359.31,246.21,122.48,10.14,27.64,771.0,0.31,0.37,0.62,0.74,0.26,,10.34362602,0.926107109,67.29407501,0.747381449,-0.219725296,0.809583843,54.9,23.9333,288466.0,,,,,,,,,,,,,,,,,
Athens,Greece,6.0,4.0,0.83,3.15,377.05,338.69,138.77,31.08,28.6,787.01,0.41,0.28,0.48,0.56,0.57,,10.13232613,0.814380348,72.40525818,0.541345119,-0.300907373,0.859931409,37.9794,23.7161,664046.0,83.6,0.2,6.5,5.4,9.7,8.5,7.2,7.7,6.8,4.3,0.8,1.2,1.8,3.0,8.8,6.2,5.5
Phoenix,United States,6.73,3.59,1.62,3.6,1092.25,824.8,161.5,67.23,27.66,3113.47,0.44,0.77,0.48,0.67,0.57,1.0,10.92576885,0.914219022,68.29949951,0.842619538,0.149891734,0.699715316,33.5722,-112.0891,4219697.0,,,,,,,,,,,,,,,,,
Hong Kong,Hong Kong,4.05,5.78,1.57,4.15,2041.88,1405.71,176.27,21.61,68.37,2387.66,0.53,0.42,0.78,0.66,0.67,1.0,10.9346714,0.845969081,76.77170563,0.779833794,0.134979904,0.420607209,22.305,114.185,7347000.0,57.7,9.2,4.7,8.9,0.4,2.9,0.2,2.0,0.7,4.7,10.0,1.0,0.5,4.0,4.0,3.3,1.2
Portland,United States,6.74,4.49,1.75,3.85,1399.8,1045.69,150.98,60.86,39.9,3403.15,0.52,0.67,0.51,0.74,0.31,1.0,10.92576885,0.914219022,68.29949951,0.842619538,0.149891734,0.699715316,45.5372,-122.65,2074775.0,81.7,5.9,9.0,3.9,1.3,6.0,3.0,1.8,8.9,8.0,6.0,4.0,4.0,7.1,3.0,4.2,5.6
Lisbon,Portugal,6.0,2.0,0.63,1.44,886.21,619.04,99.29,32.35,34.6,913.81,0.37,0.31,0.72,0.72,0.36,1.0,10.26374245,0.886590719,72.40202332,0.888747811,-0.220714301,0.892629504,38.7452,-9.1604,506654.0,102.6,1.0,7.6,7.0,7.6,8.3,7.4,8.8,2.8,4.3,4.2,5.8,7.3,7.3,6.0,8.9,8.3
Beijing,China,4.56,1.95,0.56,3.99,946.89,575.19,55.03,12.43,42.04,1137.26,0.32,0.38,0.66,0.65,0.85,1.0,9.688568115,0.798760593,69.2891922,0.898517907,-0.18142575,0.7539711,39.905,116.3914,19433000.0,69.3,9.9,2.4,7.7,3.2,4.2,0.2,7.9,1.8,6.0,10.0,1.0,0.5,0.1,4.0,10.0,0.4
Cape Town,South Africa,3.74,2.18,1.02,1.73,695.92,468.15,62.35,61.33,34.45,1140.76,0.28,0.45,0.26,0.71,0.39,1.0,9.403370857,0.852532268,56.50601196,0.759330094,-0.109777324,0.843423843,-33.925,18.425,433688.0,70.7,0.5,8.2,1.7,7.3,0.5,0.1,8.7,0.5,4.3,4.2,8.0,3.8,1.8,3.0,8.4,9.7
Tirana,Albania,4.76,1.27,0.44,1.2,296.37,175.58,68.27,19.18,29.49,336.43,0.28,0.18,0.61,0.49,0.88,1.0,9.417930603,0.671070457,68.70813751,0.781994224,-0.042309489,0.896303713,41.33,19.82,418495.0,,,,,,,,,,,,,,,,,
Porto,Portugal,6.0,2.0,0.56,1.61,682.5,507.14,101.15,31.12,32.22,801.61,0.36,0.27,0.64,0.75,0.35,,10.26374245,0.886590719,72.40202332,0.888747811,-0.220714301,0.892629504,41.1495,-8.6108,237591.0,86.5,0.9,7.0,3.2,9.0,6.5,7.4,8.9,1.7,4.3,4.2,5.8,7.3,3.5,1.0,8.8,7.0
Durban,South Africa,3.74,1.62,1.05,1.58,302.38,325.53,76.88,58.2,27.15,933.21,0.27,0.43,0.19,0.58,0.52,,9.403370857,0.852532268,56.50601196,0.759330094,-0.109777324,0.843423843,-29.8583,31.025,595061.0,,,,,,,,,,,,,,,,,
Budapest,Hungary,4.79,1.5,0.34,1.41,480.55,356.04,147.94,13.06,37.85,755.32,0.3,0.34,0.64,0.49,0.54,1.0,10.24924374,0.921934128,67.60997009,0.718964577,-0.194323018,0.892916501,47.4983,19.0408,1752286.0,80.8,6.0,3.9,6.4,9.1,6.6,1.1,9.3,4.9,4.3,3.4,0.9,1.6,0.8,6.0,9.3,7.2
Vilnius,Lithuania,5.0,3.0,0.66,2.1,488.14,329.77,115.86,11.03,27.61,912.37,0.33,0.39,0.72,0.72,0.24,,10.34362602,0.926107109,67.29407501,0.747381449,-0.219725296,0.809583843,54.6833,25.2833,574147.0,,,,,,,,,,,,,,,,,
Johannesburg,South Africa,3.45,1.73,1.01,1.67,421.71,369.1,83.28,59.93,33.16,1089.06,0.31,0.47,0.19,0.6,0.62,,9.403370857,0.852532268,56.50601196,0.759330094,-0.109777324,0.843423843,-26.2044,28.0416,4434827.0,,,,,,,,,,,,,,,,,
Barcelona,Spain,7.0,2.5,0.61,1.79,950.28,725.42,136.65,42.57,41.14,1444.48,0.44,0.38,0.54,0.78,0.65,1.0,10.46292686,0.921125412,74.40270996,0.751989543,-0.050961714,0.765859902,41.3825,2.1769,4588000.0,101.0,0.6,6.9,8.6,6.5,7.1,8.3,6.7,6.6,7.0,2.2,6.0,7.6,9.2,6.0,7.5,4.2
San Diego,United States,6.74,5.39,1.63,3.83,1816.1,1479.24,123.99,56.97,32.62,4293.13,0.53,0.75,0.63,0.7,0.35,1.0,10.92576885,0.914219022,68.29949951,0.842619538,0.149891734,0.699715316,32.8312,-117.1225,3220118.0,,,,,,,,,,,,,,,,,
San Francisco,United States,8.98,6.29,1.74,4.06,3131.06,2527.11,127.73,60.0,77.08,6532.21,0.62,0.85,0.44,0.65,0.47,1.0,10.92576885,0.914219022,68.29949951,0.842619538,0.149891734,0.699715316,37.7562,-122.443,3592294.0,84.0,6.7,10.0,7.5,0.1,9.9,3.0,0.3,1.0,9.3,6.0,4.0,4.0,9.8,3.0,1.4,8.0
Lima,Peru,4.21,1.9,0.9,2.14,435.67,279.01,63.97,34.82,48.84,439.49,0.26,0.18,0.3,0.59,0.84,,9.456313133,0.831075251,68.10023499,0.824766099,-0.16238822,0.893714964,-12.05,-77.0333,9848000.0,52.0,3.6,1.0,7.6,7.5,1.2,0.5,8.6,0.9,4.3,0.7,1.4,1.4,0.3,4.0,8.7,0.3
Seattle,United States,7.19,5.39,1.68,3.81,1919.17,1450.04,144.15,58.46,48.94,4741.65,0.6,0.81,0.51,0.73,0.29,1.0,10.92576885,0.914219022,68.29949951,0.842619538,0.149891734,0.699715316,47.6211,-122.3244,3789215.0,78.9,7.6,9.8,6.1,0.7,5.3,3.0,0.9,9.1,7.5,6.0,4.0,4.0,6.8,1.0,3.6,3.5
Braşov,Romania,4.18,1.25,0.47,1.41,304.39,228.7,100.39,7.53,29.81,554.56,,,,,,,10.107584,0.825161517,67.20723724,0.842823207,-0.19781521,0.934300244,45.65,25.6,290743.0,,,,,,,,,,,,,,,,,
Bucharest,Romania,4.19,1.78,0.51,1.87,401.41,268.02,89.13,8.47,35.84,658.66,0.29,0.32,0.72,0.54,0.76,1.0,10.107584,0.825161517,67.20723724,0.842823207,-0.19781521,0.934300244,44.4,26.0833,1883425.0,80.5,9.6,4.0,1.0,9.6,8.4,0.7,9.9,8.8,4.3,1.8,1.9,0.8,0.5,6.0,9.1,4.1
Tashkent,Uzbekistan,2.7,0.9,0.28,1.11,209.86,124.02,31.53,35.48,24.77,205.98,,,,,,1.0,8.740371704,0.926595807,65.10757446,0.974998116,0.248427153,0.501497388,41.3,69.2667,2424100.0,,,,,,,,,,,,,,,,,
Ahmadābād,India,3.16,1.9,0.35,1.4,199.17,149.35,47.94,7.34,18.18,303.54,0.18,0.24,0.7,0.7,0.72,,8.849823952,0.592200935,60.21518707,0.881444871,0.057551607,0.772042692,23.03,72.58,7410000.0,,,,,,,,,,,,,,,,,
Cluj-Napoca,Romania,4.18,1.57,0.54,1.6,387.79,284.75,91.85,7.34,26.21,642.86,0.27,0.34,0.79,0.65,0.43,,10.107584,0.825161517,67.20723724,0.842823207,-0.19781521,0.934300244,46.78,23.5594,324576.0,,,,,,,,,,,,,,,,,
Madrid,Spain,8.0,3.0,0.71,1.76,933.23,703.38,119.87,41.89,35.57,1578.77,0.44,0.41,0.71,0.79,0.53,1.0,10.46292686,0.921125412,74.40270996,0.751989543,-0.050961714,0.765859902,40.4189,-3.6919,3266126.0,91.6,0.7,5.2,7.9,4.5,8.2,8.3,6.8,4.1,7.1,2.2,6.0,7.6,8.3,6.0,6.9,1.8
Tallinn,Estonia,6.0,4.0,0.58,2.79,533.33,364.36,175.25,22.88,45.44,1188.81,0.39,0.4,0.78,0.71,0.23,,10.34001732,0.934729993,68.60495758,0.87770915,-0.111697771,0.623073816,59.4372,24.745,434562.0,,,,,,,,,,,,,,,,,
Bangalore,India,3.16,1.9,0.36,1.63,213.5,124.18,22.24,12.42,20.0,579.22,0.19,0.45,0.46,0.66,0.83,,8.849823952,0.592200935,60.21518707,0.881444871,0.057551607,0.772042692,12.9699,77.598,13707000.0,,,,,,,,,,,,,,,,,
Iaşi,Romania,4.19,1.26,0.53,1.48,272.07,202.65,115.11,6.8,28.32,529.52,0.26,0.29,0.71,0.58,0.58,,10.107584,0.825161517,67.20723724,0.842823207,-0.19781521,0.934300244,47.1622,27.5889,290422.0,,,,,,,,,,,,,,,,,
Chennai,India,3.35,1.9,0.39,1.3,163.9,98.51,35.72,11.19,17.63,403.82,0.17,0.32,0.6,0.72,0.75,1.0,8.849823952,0.592200935,60.21518707,0.881444871,0.057551607,0.772042692,13.0825,80.275,11324000.0,,,,,,,,,,,,,,,,,
Delhi,India,3.16,1.9,0.37,1.64,200.32,123.19,51.68,9.76,21.35,473.8,0.19,0.28,0.41,0.67,0.91,1.0,8.849823952,0.592200935,60.21518707,0.881444871,0.057551607,0.772042692,28.66,77.23,29617000.0,,,,,,,,,,,,,,,,,
Gurgaon,India,3.16,1.96,0.35,1.71,238.36,146.22,63.53,12.81,29.15,859.33,0.22,0.5,0.43,0.65,0.92,,8.849823952,0.592200935,60.21518707,0.881444871,0.057551607,0.772042692,28.45,77.02,197340.0,,,,,,,,,,,,,,,,,
Valencia,Spain,7.0,2.0,0.38,1.53,672.08,463.64,113.44,35.26,31.35,1342.17,0.37,0.46,0.74,0.81,0.46,,10.46292686,0.921125412,74.40270996,0.751989543,-0.050961714,0.765859902,39.4667,-0.375,794288.0,99.0,0.4,3.2,6.6,9.3,4.5,8.3,8.3,8.6,7.2,2.2,6.0,7.6,7.4,8.5,8.0,2.9
Vienna,Austria,7.25,4.0,0.54,3.19,858.37,621.65,158.45,30.86,27.44,1900.43,0.48,0.58,0.75,0.79,0.18,1.0,10.7428236,0.928045869,73.00250244,0.899989486,0.085429221,0.499954879,48.2083,16.3731,1840573.0,91.6,4.7,3.8,8.3,4.9,8.7,8.0,4.1,8.7,4.3,4.4,2.8,6.4,3.4,6.0,5.8,7.3
Hyderābād,India,3.8,1.52,0.37,1.17,156.95,92.66,21.79,9.47,18.1,441.12,0.18,0.32,0.56,0.66,0.76,,8.849823952,0.592200935,60.21518707,0.881444871,0.057551607,0.772042692,17.3667,78.4667,9746000.0,,,,,,,,,,,,,,,,,
Montevideo,Uruguay,6.96,1.92,1.06,2.35,428.25,338.45,98.22,28.65,40.13,642.49,0.34,0.21,0.46,0.68,0.49,1.0,9.948192596,0.92281127,69.00254822,0.892395437,-0.101103112,0.635994136,-34.8667,-56.1667,1319108.0,,,,,,,,,,,,,,,,,
Tel Aviv,Israel,12.95,7.77,1.28,3.4,1326.91,993.88,197.25,24.84,67.82,2306.23,0.62,0.43,0.74,0.75,0.47,,10.41752529,0.913571239,73.20025635,0.747580588,0.10259372,0.78085506,32.0833,34.8,451523.0,64.4,7.4,9.6,0.7,3.9,1.4,4.5,3.7,2.5,4.3,0.4,3.3,0.3,8.6,8.8,0.3,4.7
Timişoara,Romania,4.18,1.25,0.49,1.42,287.68,217.44,95.29,7.53,25.3,613.27,0.26,0.42,0.76,0.73,0.58,,10.107584,0.825161517,67.20723724,0.842823207,-0.19781521,0.934300244,45.7597,21.23,319279.0,,,,,,,,,,,,,,,,,
Taipei,Taiwan,3.91,1.77,1.12,2.64,487.78,323.83,68.8,20.55,40.35,1340.77,0.45,0.39,0.87,0.87,0.49,1.0,10.77568531,0.894309103,69.59999847,0.77153033,-0.073198698,0.73188293,25.0478,121.5319,2684567.0,68.4,8.7,3.5,9.2,5.0,6.3,0.4,1.0,2.3,4.3,7.8,1.0,0.4,3.9,3.3,9.0,2.3
Kolkāta,India,3.79,1.87,0.35,1.38,138.31,79.35,29.47,7.72,15.18,323.06,0.18,0.26,0.52,0.58,0.78,1.0,8.849823952,0.592200935,60.21518707,0.881444871,0.057551607,0.772042692,22.5411,88.3378,17560000.0,,,,,,,,,,,,,,,,,
Skopje,Macedonia,3.25,1.62,0.43,1.37,233.43,168.07,107.26,15.11,22.03,393.01,0.25,0.22,0.57,0.56,0.83,1.0,9.510591507,0.820392311,67.50442505,0.738840938,-0.019877451,0.897490501,41.9833,21.4333,640000.0,,,,,,,,,,,,,,,,,
Shanghai,China,4.56,1.3,0.61,3.82,970.31,477.33,51.7,14.26,44.9,1111.52,0.35,0.37,0.66,0.61,0.77,1.0,9.688568115,0.798760593,69.2891922,0.898517907,-0.18142575,0.7539711,31.1667,121.4667,22120000.0,57.6,8.2,0.8,8.5,3.5,3.8,0.2,5.5,0.4,5.3,10.0,1.0,0.5,0.9,1.0,7.8,0.2
Bangkok,Thailand,5.04,2.37,0.51,2.07,611.26,299.91,88.89,20.69,61.07,668.6,0.37,0.2,0.59,0.77,0.77,,9.741791725,0.889973223,67.25059509,0.905063033,0.268685192,0.886272311,13.75,100.5167,17066000.0,82.7,10.0,0.9,10.0,7.1,3.5,2.0,6.4,3.1,4.3,9.0,2.0,0.7,6.4,6.5,8.6,2.2
Mumbai,India,3.8,2.28,0.36,1.92,515.42,263.33,47.45,9.09,24.63,487.96,0.2,0.28,0.57,0.66,0.83,1.0,8.849823952,0.592200935,60.21518707,0.881444871,0.057551607,0.772042692,18.9667,72.8333,23355000.0,,,,,,,,,,,,,,,,,
Reykjavík,Iceland,11.64,8.73,1.57,4.11,1458.29,1203.14,88.14,59.63,54.44,2908.86,0.66,0.47,0.78,0.67,0.15,1.0,10.77255917,0.974669576,73.0,0.948891878,0.246944219,0.711709738,64.1475,-21.935,128793.0,,,,,,,,,,,,,,,,,
Amman,Jordan,6.34,6.34,0.53,3.74,373.84,261.02,80.62,38.86,56.38,545.55,0.37,0.21,0.61,0.65,0.76,1.0,9.025999069,0.80216372,66.79975128,0.75104779,-0.162565202,0.700344324,31.95,35.9333,4007526.0,,,,,,,,,,,,,,,,,
Pune,India,3.16,2.28,0.37,1.61,205.68,127.68,26.65,11.7,16.08,531.09,0.18,0.32,0.59,0.66,0.71,,8.849823952,0.592200935,60.21518707,0.881444871,0.057551607,0.772042692,18.5196,73.8553,7764000.0,,,,,,,,,,,,,,,,,
Stockholm,Sweden,7.6,6.55,1.61,3.64,1167.36,804.1,75.9,27.98,37.83,2476.17,0.58,0.54,0.55,0.67,0.2,1.0,10.75879383,0.926311195,72.60076904,0.939144194,0.111614622,0.250880182,59.3294,18.0686,972647.0,80.3,4.5,6.4,3.6,2.5,7.6,4.8,1.3,5.1,5.7,1.3,9.6,8.8,9.6,4.0,0.8,4.8
Buenos Aires,Argentina,4.94,1.5,0.85,1.46,245.13,197.02,68.07,24.79,25.9,483.99,0.26,0.24,0.37,0.68,0.52,1.0,9.810955048,0.900567949,68.80380249,0.831132412,-0.194913864,0.842009842,-34.5997,-58.3819,16157000.0,81.8,2.9,0.6,3.5,8.3,3.7,0.8,7.5,2.1,4.3,5.0,5.6,6.8,9.9,8.3,8.2,4.3
Minsk,Belarus,4.49,1.8,0.58,1.64,376.92,244.9,48.29,12.84,31.85,433.37,0.21,0.22,0.38,0.46,0.41,1.0,9.779945374,0.90674746,66.10433197,0.639163077,-0.164926544,0.63571167,53.9022,27.5618,2020600.0,,,,,,,,,,,,,,,,,
San José,Costa Rica,6.29,2.36,2.16,2.64,461.72,405.66,65.12,65.3,53.68,708.44,0.35,0.29,0.45,0.63,0.52,1.0,9.658156395,0.901545942,71.29985046,0.934738934,-0.10242971,0.786332428,9.9333,-84.0833,288054.0,,,,,,,,,,,,,,,,,
Casablanca,Morocco,5.16,2.58,0.54,1.51,386.18,180.27,35.74,31.63,24.49,405.7,0.27,0.2,0.45,0.44,0.83,,8.940313339,0.592628479,65.89624023,0.772072434,-0.240377247,0.815724611,33.5992,-7.62,4370000.0,,,,,,,,,,,,,,,,,
Łódź,Poland,4.25,1.77,0.44,1.73,362.66,280.88,172.01,12.53,26.35,689.44,0.28,0.3,0.58,0.54,0.6,,10.26512432,0.874257445,69.31113434,0.862055779,-0.205084071,0.686927021,51.7769,19.4547,690422.0,,,,,,,,,,,,,,,,,
Montréal,Canada,6.87,4.81,1.42,2.83,871.26,551.99,66.62,42.59,23.04,2182.51,0.46,0.57,0.71,0.65,0.33,,10.69236851,0.927176654,73.60160065,0.933913231,0.124770768,0.390843362,45.5089,-73.5617,3519595.0,98.5,3.4,7.7,4.4,6.9,5.7,4.3,3.0,4.3,5.6,8.0,5.4,9.3,8.7,9.5,4.3,8.1
São Paulo,Brazil,5.92,1.97,0.61,1.46,448.08,294.58,54.21,24.2,25.41,470.25,0.24,0.22,0.3,0.58,0.8,1.0,9.56643486,0.896723807,66.48016357,0.799804807,-0.101812392,0.770601273,-23.5504,-46.6339,22046000.0,71.8,2.4,2.2,4.8,8.0,2.1,0.6,7.8,3.2,4.4,7.4,1.6,2.8,7.0,7.6,8.5,1.4
Gothenburg,Sweden,7.6,6.31,1.3,3.58,952.59,715.92,51.69,30.42,32.03,2183.46,0.54,0.56,0.54,0.69,0.21,,10.75879383,0.926311195,72.60076904,0.939144194,0.111614622,0.250880182,57.6717,11.981,600473.0,73.0,3.8,3.4,4.0,3.6,6.2,4.8,2.5,6.3,4.3,1.3,9.6,8.8,4.1,4.0,0.7,5.7
Dublin,Ireland,8.0,5.8,1.41,3.2,1692.24,1405.38,169.12,54.01,40.22,2531.16,0.57,0.45,0.5,0.52,0.4,1.0,11.16097832,0.942081571,72.30078888,0.886982977,0.145784974,0.357184172,53.3425,-6.2658,1173179.0,90.2,4.4,8.7,7.8,2.6,4.3,6.0,6.2,9.0,4.3,2.0,9.5,10.0,4.9,1.0,3.0,6.5
Moscow,Russia,4.4,2.93,0.62,2.43,888.23,518.48,126.36,6.79,41.55,970.29,0.28,0.31,0.61,0.63,0.57,1.0,10.12887192,0.903150737,64.10045624,0.729892612,-0.151153743,0.864802599,55.7558,37.6178,17125000.0,,,,,,,,,,,,,,,,,
Santo Domingo,Dominican Republic,5.1,1.7,1.17,1.51,381.17,203.64,53.67,50.03,22.49,335.33,,,,,,1.0,9.664880753,0.882085383,65.80748749,0.866202772,-0.131263286,0.755999923,18.4764,-69.8933,2581827.0,,,,,,,,,,,,,,,,,
Adelaide,Australia,6.84,4.97,1.46,2.63,817.81,601.79,119.44,41.95,34.05,2653.26,0.54,0.67,0.71,0.81,0.18,,10.72059631,0.944854617,73.60453796,0.915431738,0.19046016,0.41516912,-34.9289,138.6011,1345777.0,,,,,,,,,,,,,,,,,
Zürich,Switzerland,12.94,6.24,1.13,4.66,1701.77,1263.69,162.87,48.71,76.33,5714.8,0.9,0.79,0.84,0.76,0.17,1.0,10.97993279,0.942846596,74.10244751,0.921336651,0.105911039,0.303728431,47.3786,8.54,434008.0,99.7,8.3,8.3,4.3,0.9,6.9,5.8,0.1,8.2,8.8,7.0,9.2,7.0,5.6,9.0,0.6,9.8
Yerevan,Armenia,4.6,1.13,0.44,1.95,320.04,170.55,60.06,14.09,43.14,295.66,0.21,0.18,0.76,0.53,0.57,1.0,9.100476265,0.757479429,66.75065613,0.712017834,-0.13877961,0.773544788,40.1814,44.5144,1075800.0,,,,,,,,,,,,,,,,,
Manila,Philippines,2.67,1.25,0.69,2.29,552.51,192.18,120.87,45.47,43.97,358.2,0.29,0.12,0.36,0.63,0.9,1.0,8.993545532,0.846730053,61.92676163,0.915463448,-0.105463006,0.733634114,14.5958,120.9772,23088000.0,,,,,,,,,,,,,,,,,
Brisbane,Australia,7.43,4.95,1.34,2.8,1041.75,757.35,108.52,47.06,40.03,3030.03,0.56,0.65,0.65,0.82,0.22,1.0,10.72059631,0.944854617,73.60453796,0.915431738,0.19046016,0.41516912,-27.4678,153.0281,2514184.0,64.9,6.5,4.9,3.3,3.0,1.9,3.8,5.0,2.0,5.4,3.6,3.6,9.0,6.5,2.0,3.1,1.3
Jakarta,Indonesia,3.28,2.62,0.49,2.32,401.19,224.82,96.12,26.47,38.09,414.33,0.29,0.16,0.46,0.57,0.84,1.0,9.36975193,0.808379889,62.15584946,0.870614409,0.519586504,0.876296401,-6.2146,106.8451,34540000.0,,,,,,,,,,,,,,,,,
Ankara,Turkey,3.51,2.75,0.26,1.7,198.86,125.32,54.61,14.11,20.81,440.17,0.21,0.26,0.6,0.69,0.66,1.0,10.12941933,0.826313555,66.90281677,0.608830452,-0.171046436,0.748197377,39.93,32.85,5503985.0,,,,,,,,,,,,,,,,,
Lviv,Ukraine,3.56,1.5,0.46,1.15,364.65,249.9,88.45,4.44,17.16,341.38,0.19,0.2,0.59,0.59,0.53,,9.010690689,0.878879368,64.60678101,0.663081884,-0.030933706,0.920636714,49.8419,24.0315,724314.0,,,,,,,,,,,,,,,,,
Novosibirsk,Russia,3.67,1.1,0.5,1.88,344.85,225.13,94.51,7.96,27.49,436.28,0.21,0.23,0.53,0.55,0.69,,10.12887192,0.903150737,64.10045624,0.729892612,-0.151153743,0.864802599,55.0333,82.9167,1602915.0,,,,,,,,,,,,,,,,,
Bursa,Turkey,3.06,2.37,0.29,1.59,177.53,121.74,67.46,12.93,23.4,443.85,0.21,0.22,0.72,0.79,0.44,,10.12941933,0.826313555,66.90281677,0.608830452,-0.171046436,0.748197377,40.1833,29.0667,2901396.0,,,,,,,,,,,,,,,,,
Brussels,Belgium,8.2,4.0,0.94,3.17,838.2,686.19,122.98,43.43,26.11,2289.69,0.53,0.58,0.49,0.75,0.62,1.0,10.6736393,0.911632538,72.00164795,0.813582063,-0.078691199,0.612297952,50.8467,4.3517,185103.0,86.5,1.3,5.4,5.6,5.1,8.9,5.5,3.8,4.4,6.3,7.2,6.5,6.6,2.6,7.6,4.8,4.9
Jerusalem,Israel,12.97,7.26,1.5,2.8,919.4,740.05,166.88,24.16,71.27,1911.12,,,,,,,10.41752529,0.913571239,73.20025635,0.747580588,0.10259372,0.78085506,31.7833,35.2167,919438.0,,,,,,,,,,,,,,,,,
Melbourne,Australia,7.12,5.57,1.28,2.63,1134.86,859.46,127.87,43.28,46.28,2791.96,0.55,0.68,0.56,0.75,0.26,1.0,10.72059631,0.944854617,73.60453796,0.915431738,0.19046016,0.41516912,-37.8136,144.9631,5078193.0,74.8,6.1,5.7,5.1,2.1,4.1,3.8,3.4,4.7,4.3,3.6,3.6,9.0,6.6,8.3,1.2,3.3
Perth,Australia,7.32,5.9,1.68,2.86,897.5,639.56,129.02,43.78,39.32,2493.77,0.56,0.66,0.58,0.78,0.23,1.0,10.72059631,0.944854617,73.60453796,0.915431738,0.19046016,0.41516912,-31.9522,115.8589,2059484.0,62.5,8.0,3.0,2.2,3.3,0.7,3.8,2.8,3.9,6.5,3.6,3.6,9.0,7.2,0.6,0.4,3.9
Sydney,Australia,7.15,4.97,1.29,2.48,1568.39,1140.67,110.7,43.51,47.37,3018.36,0.59,0.64,0.66,0.78,0.27,1.0,10.72059631,0.944854617,73.60453796,0.915431738,0.19046016,0.41516912,-33.865,151.2094,5312163.0,67.2,6.8,6.7,7.1,0.8,1.3,3.8,3.5,1.6,5.0,3.6,3.6,9.0,8.5,1.0,1.8,3.1
Alexandria,Egypt,3.38,1.69,0.26,1.45,142.04,84.65,18.56,16.57,19.58,163.94,,,,,,,9.316541672,0.735447824,61.78015137,0.708354175,-0.196878314,0.787726879,31.2,29.9167,4870000.0,,,,,,,,,,,,,,,,,
Quito,Ecuador,5.39,1.35,0.93,1.81,369.07,221.89,39.64,36.77,40.91,527.18,0.29,0.19,0.41,0.68,0.66,,9.246058464,0.836418986,68.50003815,0.859828949,-0.127014965,0.801215112,-0.2186,-78.5097,2011388.0,,,,,,,,,,,,,,,,,
Canberra,Australia,,,,,,,,,,,0.56,0.63,0.78,0.81,0.14,1.0,10.72059631,0.944854617,73.60453796,0.915431738,0.19046016,0.41516912,-35.2931,149.1269,426704.0,65.7,8.9,0.4,1.9,2.2,0.6,3.8,4.7,3.3,8.9,3.6,3.6,9.0,4.7,1.0,4.1,5.0
Wellington,New Zealand,,,,,,,,,,,0.52,0.64,0.72,0.75,0.14,,10.50094318,0.949118972,73.20262909,0.936217487,0.191598073,0.22113885,-41.2889,174.7772,418500.0,,,,,,,,,,,,,,,,,
Raleigh,United States,,,,,,,,,,,0.47,0.83,0.66,0.76,0.23,1.0,10.92576885,0.914219022,68.29949951,0.842619538,0.149891734,0.699715316,35.8325,-78.6435,1038738.0,,,,,,,,,,,,,,,,,
The Hague,Netherlands,,,,,,,,,,,0.48,0.62,0.75,0.78,0.2,,10.81271172,0.93913883,72.30091858,0.908547819,0.20761244,0.364717126,52.08,4.27,1406000.0,98.7,3.1,4.3,2.1,4.2,8.1,7.0,5.3,6.9,8.3,5.6,8.0,8.0,9.7,4.0,5.0,9.1
Madison,United States,,,,,,,,,,,0.46,0.75,0.67,0.79,0.2,1.0,10.92576885,0.914219022,68.29949951,0.842619538,0.149891734,0.699715316,43.0826,-89.3931,447245.0,,,,,,,,,,,,,,,,,
Columbus,United States,,,,,,,,,,,0.49,0.81,0.57,0.74,0.25,1.0,10.92576885,0.914219022,68.29949951,0.842619538,0.149891734,0.699715316,39.9862,-82.985,1562009.0,,,,,,,,,,,,,,,,,
Charlotte,United States,,,,,,,,,,,0.48,0.8,0.56,0.74,0.28,1.0,10.92576885,0.914219022,68.29949951,0.842619538,0.149891734,0.699715316,35.208,-80.8304,1512923.0,,,,,,,,,,,,,,,,,
Geneva,Switzerland,,,,,,,,,,,0.88,0.73,0.73,0.73,0.26,1.0,10.97993279,0.942846596,74.10244751,0.921336651,0.105911039,0.303728431,46.2,6.15,201818.0,85.4,2.6,8.0,1.1,0.6,5.4,5.8,0.2,9.8,10.0,7.0,9.2,7.0,4.8,4.0,0.5,9.5
Genoa,Italy,,,,,,,,,,,0.53,0.35,0.57,0.71,0.54,,10.48183632,0.889878571,73.60168457,0.66465199,-0.043460999,0.873404682,44.4072,8.934,580097.0,,,,,,,,,,,,,,,,,
Richmond,United States,,,,,,,,,,,0.46,0.71,0.55,0.74,0.32,1.0,10.92576885,0.914219022,68.29949951,0.842619538,0.149891734,0.699715316,37.5295,-77.4756,1075798.0,,,,,,,,,,,,,,,,,
Bergen,Norway,,,,,,,,,,,0.69,0.58,0.72,0.76,0.21,,11.08780384,0.952486575,73.20078278,0.955750287,0.13453263,0.263218194,60.3925,5.3233,257087.0,71.8,7.5,1.4,2.0,4.0,2.6,7.6,0.8,4.8,4.3,5.3,9.8,8.3,3.8,1.0,0.2,8.5
Luxembourg,Luxembourg,,,,,,,,,,,0.6,0.67,0.72,0.75,0.21,,11.45068073,0.906912208,72.59999847,0.90563643,-0.004620588,0.367084295,49.6106,6.1328,122273.0,,,,,,,,,,,,,,,,,
Buffalo,United States,,,,,,,,,,,0.49,0.63,0.55,0.77,0.25,1.0,10.92576885,0.914219022,68.29949951,0.842619538,0.149891734,0.699715316,42.9016,-78.8487,914341.0,,,,,,,,,,,,,,,,,
Quebec City,Canada,,,,,,,,,,,0.45,0.62,0.85,0.71,0.29,1.0,10.69236851,0.927176654,73.60160065,0.933913231,0.124770768,0.390843362,46.8139,-71.2081,705103.0,,,,,,,,,,,,,,,,,
Kansas City,United States,,,,,,,,,,,0.46,0.76,0.41,0.79,0.32,1.0,10.92576885,0.914219022,68.29949951,0.842619538,0.149891734,0.699715316,39.1239,-94.5541,1636715.0,,,,,,,,,,,,,,,,,
Edinburgh,United Kingdom,,,,,,,,,,,0.51,0.52,0.69,0.81,0.28,,10.60013485,0.93668282,72.30160522,0.834743679,0.263732493,0.435915917,55.953,-3.189,488050.0,84.5,7.7,5.6,2.8,4.3,2.0,6.5,5.9,6.0,8.5,9.5,7.0,5.0,4.6,1.0,3.7,4.4
Muscat,Oman,,,,,,,,,,,0.35,0.6,0.79,0.6,0.37,,,,,,,,23.6139,58.5922,1421409.0,,,,,,,,,,,,,,,,,
San Jose,United States,,,,,,,,,,,0.52,0.88,0.53,0.73,0.47,,10.92576885,0.914219022,68.29949951,0.842619538,0.149891734,0.699715316,37.3019,-121.8486,1798103.0,,,,,,,,,,,,,,,,,
Reno,United States,,,,,,,,,,,0.45,0.77,0.54,0.62,0.32,1.0,10.92576885,0.914219022,68.29949951,0.842619538,0.149891734,0.699715316,39.5497,-119.8483,445020.0,,,,,,,,,,,,,,,,,
Belfast,United Kingdom,,,,,,,,,,,0.44,0.56,0.6,0.72,0.28,1.0,10.60013485,0.93668282,72.30160522,0.834743679,0.263732493,0.435915917,54.5964,-5.93,333871.0,,,,,,,,,,,,,,,,,
Düsseldorf,Germany,,,,,,,,,,,0.48,0.6,0.69,0.72,0.33,,10.7328186,0.898874462,72.20201874,0.867371082,0.080179386,0.456422031,51.2311,6.7724,619294.0,,,,,,,,,,,,,,,,,
Liverpool,United Kingdom,,,,,,,,,,,0.47,0.55,0.56,0.86,0.3,,10.60013485,0.93668282,72.30160522,0.834743679,0.263732493,0.435915917,53.4,-2.9833,864122.0,,,,,,,,,,,,,,,,,
Tampa,United States,,,,,,,,,,,0.53,0.69,0.51,0.69,0.3,,10.92576885,0.914219022,68.29949951,0.842619538,0.149891734,0.699715316,27.9942,-82.4451,2908063.0,,,,,,,,,,,,,,,,,
St. Louis,United States,,,,,,,,,,,0.45,0.8,0.3,0.81,0.38,1.0,10.92576885,0.914219022,68.29949951,0.842619538,0.149891734,0.699715316,38.6358,-90.2451,2024074.0,,,,,,,,,,,,,,,,,
Glasgow,United Kingdom,,,,,,,,,,,0.46,0.62,0.56,0.81,0.35,,10.60013485,0.93668282,72.30160522,0.834743679,0.263732493,0.435915917,55.8609,-4.2514,985290.0,90.8,2.8,4.2,4.5,8.1,3.4,6.5,7.2,5.4,9.2,9.5,7.0,5.0,4.5,1.0,4.6,7.9
Cincinnati,United States,,,,,,,,,,,0.42,0.74,0.52,0.69,0.44,1.0,10.92576885,0.914219022,68.29949951,0.842619538,0.149891734,0.699715316,39.1413,-84.5061,1662691.0,,,,,,,,,,,,,,,,,
Nashville,United States,,,,,,,,,,,0.48,0.75,0.52,0.64,0.36,1.0,10.92576885,0.914219022,68.29949951,0.842619538,0.149891734,0.699715316,36.1715,-86.7843,1081903.0,,,,,,,,,,,,,,,,,
Indianapolis,United States,,,,,,,,,,,0.44,0.8,0.42,0.73,0.42,1.0,10.92576885,0.914219022,68.29949951,0.842619538,0.149891734,0.699715316,39.7771,-86.1458,1588961.0,,,,,,,,,,,,,,,,,
Jacksonville,United States,,,,,,,,,,,0.46,0.74,0.42,0.69,0.39,1.0,10.92576885,0.914219022,68.29949951,0.842619538,0.149891734,0.699715316,30.3322,-81.6749,1181496.0,,,,,,,,,,,,,,,,,
Cambridge,United Kingdom,,,,,,,,,,,0.5,0.49,0.72,0.74,0.32,,10.60013485,0.93668282,72.30160522,0.834743679,0.263732493,0.435915917,52.2053,0.1192,66.0,,,,,,,,,,,,,,,,,
San Antonio,United States,,,,,,,,,,,0.43,0.7,0.51,0.72,0.45,1.0,10.92576885,0.914219022,68.29949951,0.842619538,0.149891734,0.699715316,29.4658,-98.5253,2049293.0,,,,,,,,,,,,,,,,,
Tucson,United States,,,,,,,,,,,0.45,0.63,0.49,0.59,0.26,1.0,10.92576885,0.914219022,68.29949951,0.842619538,0.149891734,0.699715316,32.1545,-110.8782,888486.0,,,,,,,,,,,,,,,,,
Minneapolis,United States,,,,,,,,,,,0.55,0.75,0.48,0.78,0.27,,10.92576885,0.914219022,68.29949951,0.842619538,0.149891734,0.699715316,44.9635,-93.2678,2977172.0,,,,,,,,,,,,,,,,,
Kelowna,Canada,,,,,,,,,,,0.45,0.58,0.5,0.75,0.22,,10.69236851,0.927176654,73.60160065,0.933913231,0.124770768,0.390843362,49.8881,-119.4956,142146.0,,,,,,,,,,,,,,,,,
Spokane,United States,,,,,,,,,,,0.49,0.59,0.46,0.64,0.2,1.0,10.92576885,0.914219022,68.29949951,0.842619538,0.149891734,0.699715316,47.6671,-117.433,412275.0,,,,,,,,,,,,,,,,,
Graz,Austria,,,,,,,,,,,0.53,0.49,0.74,0.78,0.37,,10.7428236,0.928045869,73.00250244,0.899989486,0.085429221,0.499954879,47.0667,15.4333,289440.0,87.3,7.8,0.2,0.6,6.7,4.9,8.0,4.6,7.7,4.3,4.4,2.8,6.4,4.2,9.3,6.4,9.0
Sacramento,United States,,,,,,,,,,,0.51,0.68,0.51,0.7,0.45,1.0,10.92576885,0.914219022,68.29949951,0.842619538,0.149891734,0.699715316,38.5667,-121.4683,1898019.0,,,,,,,,,,,,,,,,,
Albuquerque,United States,,,,,,,,,,,0.44,0.69,0.3,0.67,0.25,1.0,10.92576885,0.914219022,68.29949951,0.842619538,0.149891734,0.699715316,35.1053,-106.6464,761195.0,,,,,,,,,,,,,,,,,
Cork,Ireland,,,,,,,,,,,0.57,0.48,0.66,0.58,0.24,,11.16097832,0.942081571,72.30078888,0.886982977,0.145784974,0.357184172,51.9,-8.4731,208669.0,78.5,3.3,7.4,2.3,5.2,0.8,6.0,6.9,2.7,4.3,2.0,9.5,10.0,4.4,0.6,3.2,9.9
Halifax,Canada,,,,,,,,,,,0.51,0.54,0.6,0.7,0.23,,10.69236851,0.927176654,73.60160065,0.933913231,0.124770768,0.390843362,44.6475,-63.5906,403131.0,,,,,,,,,,,,,,,,,
Leeds,United Kingdom,,,,,,,,,,,0.44,0.6,0.58,0.83,0.46,,10.60013485,0.93668282,72.30160522,0.834743679,0.263732493,0.435915917,53.7997,-1.5492,1901934.0,,,,,,,,,,,,,,,,,
Pittsburgh,United States,,,,,,,,,,,0.53,0.67,0.62,0.75,0.45,1.0,10.92576885,0.914219022,68.29949951,0.842619538,0.149891734,0.699715316,40.4396,-79.9762,1703266.0,,,,,,,,,,,,,,,,,
Stuttgart,Germany,,,,,,,,,,,0.48,0.63,0.71,0.72,0.45,,10.7328186,0.898874462,72.20201874,0.867371082,0.080179386,0.456422031,48.7761,9.1775,634830.0,,,,,,,,,,,,,,,,,
Orlando,United States,,,,,,,,,,,0.46,0.64,0.48,0.62,0.36,1.0,10.92576885,0.914219022,68.29949951,0.842619538,0.149891734,0.699715316,28.4772,-81.3369,1822394.0,,,,,,,,,,,,,,,,,
Denver,United States,,,,,,,,,,,0.49,0.78,0.57,0.69,0.43,1.0,10.92576885,0.914219022,68.29949951,0.842619538,0.149891734,0.699715316,39.7621,-104.8759,2876625.0,82.1,7.3,9.3,3.8,1.8,5.5,3.0,1.6,9.7,7.7,6.0,4.0,4.0,6.9,0.6,5.6,5.3
Anchorage,United States,,,,,,,,,,,0.61,0.72,0.37,0.61,0.17,1.0,10.92576885,0.914219022,68.29949951,0.842619538,0.149891734,0.699715316,61.1508,-149.1091,247949.0,,,,,,,,,,,,,,,,,
Salt Lake City,United States,,,,,,,,,,,0.43,0.84,0.68,0.71,0.63,1.0,10.92576885,0.914219022,68.29949951,0.842619538,0.149891734,0.699715316,40.7777,-111.9306,1098526.0,,,,,,,,,,,,,,,,,
Atlanta,United States,,,,,,,,,,,0.51,0.8,0.38,0.67,0.45,1.0,10.92576885,0.914219022,68.29949951,0.842619538,0.149891734,0.699715316,33.7627,-84.4224,5449398.0,,,,,,,,,,,,,,,,,
Washington,United States,,,,,,,,,,,0.56,0.75,0.42,0.71,0.39,1.0,10.92576885,0.914219022,68.29949951,0.842619538,0.149891734,0.699715316,38.9047,-77.0163,5379184.0,,,,,,,,,,,,,,,,,
Mangalore,India,,,,,,,,,,,0.16,0.36,0.75,0.77,0.39,,8.849823952,0.592200935,60.21518707,0.881444871,0.057551607,0.772042692,12.8703,74.8806,623841.0,,,,,,,,,,,,,,,,,
Mississauga,Canada,,,,,,,,,,,0.48,0.57,0.58,0.71,0.24,,10.69236851,0.927176654,73.60160065,0.933913231,0.124770768,0.390843362,43.6,-79.65,721599.0,,,,,,,,,,,,,,,,,
Oakland,United States,,,,,,,,,,,0.6,0.62,0.36,0.79,0.35,,10.92576885,0.914219022,68.29949951,0.842619538,0.149891734,0.699715316,37.7903,-122.2165,433031.0,,,,,,,,,,,,,,,,,
Cologne,Germany,,,,,,,,,,,0.48,0.59,0.57,0.75,0.41,,10.7328186,0.898874462,72.20201874,0.867371082,0.080179386,0.456422031,50.9422,6.9578,1085664.0,100.8,6.6,4.8,0.9,6.6,8.8,5.0,7.3,3.7,8.2,2.6,9.0,6.0,8.8,9.8,6.3,6.4
Cleveland,United States,,,,,,,,,,,0.5,0.53,0.35,0.83,0.37,1.0,10.92576885,0.914219022,68.29949951,0.842619538,0.149891734,0.699715316,41.4767,-81.6804,1710093.0,,,,,,,,,,,,,,,,,
Honolulu,United States,,,,,,,,,,,0.64,0.51,0.56,0.72,0.37,1.0,10.92576885,0.914219022,68.29949951,0.842619538,0.149891734,0.699715316,21.3294,-157.846,820987.0,,,,,,,,,,,,,,,,,
Bristol,United Kingdom,,,,,,,,,,,0.5,0.49,0.59,0.74,0.45,,10.60013485,0.93668282,72.30160522,0.834743679,0.263732493,0.435915917,51.45,-2.5833,724000.0,92.5,5.8,5.3,0.2,5.6,0.3,6.5,6.6,5.7,9.4,9.5,7.0,5.0,8.4,7.0,4.0,6.2
Doha,Qatar,,,,,,,,,,,0.43,0.59,0.88,0.73,0.6,1.0,,,,,,,25.3,51.5333,1312947.0,,,,,,,,,,,,,,,,,
Baltimore,United States,,,,,,,,,,,0.49,0.68,0.25,0.77,0.5,1.0,10.92576885,0.914219022,68.29949951,0.842619538,0.149891734,0.699715316,39.3051,-76.6144,2106068.0,,,,,,,,,,,,,,,,,
Antwerp,Belgium,,,,,,,,,,,0.53,0.52,0.63,0.81,0.61,,10.6736393,0.911632538,72.00164795,0.813582063,-0.078691199,0.612297952,51.2211,4.3997,529247.0,101.1,6.2,4.4,2.7,7.0,7.8,5.5,2.7,8.3,8.4,7.2,6.5,6.6,6.1,8.0,6.1,7.6
Miami,United States,,,,,,,,,,,0.52,0.56,0.47,0.63,0.39,,10.92576885,0.914219022,68.29949951,0.842619538,0.149891734,0.699715316,25.7839,-80.2102,6445545.0,,,,,,,,,,,,,,,,,
Regina,Canada,,,,,,,,,,,0.48,0.64,0.47,0.68,0.37,1.0,10.69236851,0.927176654,73.60160065,0.933913231,0.124770768,0.390843362,50.4547,-104.6067,215106.0,,,,,,,,,,,,,,,,,
Lyon,France,,,,,,,,,,,0.55,0.49,0.55,0.77,0.51,,10.58422279,0.937103748,73.80193329,0.825467646,-0.130641967,0.583521128,45.76,4.84,516092.0,100.8,2.2,5.5,7.4,4.7,9.8,10.0,1.7,8.0,9.7,8.5,7.6,3.0,6.7,7.6,1.7,6.7
Milwaukee,United States,,,,,,,,,,,0.54,0.52,0.31,0.66,0.3,1.0,10.92576885,0.914219022,68.29949951,0.842619538,0.149891734,0.699715316,43.0642,-87.9673,1365787.0,,,,,,,,,,,,,,,,,
Manchester,United Kingdom,,,,,,,,,,,0.48,0.58,0.44,0.78,0.53,,10.60013485,0.93668282,72.30160522,0.834743679,0.263732493,0.435915917,53.4794,-2.2453,2705000.0,95.5,4.1,2.7,5.3,7.2,5.2,7.0,7.4,5.2,9.6,9.5,7.0,5.0,5.3,4.0,4.7,6.3
Haifa,Israel,,,,,,,,,,,0.57,0.51,0.73,0.74,0.75,,10.41752529,0.913571239,73.20025635,0.747580588,0.10259372,0.78085506,32.8,34.9833,281087.0,,,,,,,,,,,,,,,,,
Birmingham,United Kingdom,,,,,,,,,,,0.47,0.5,0.4,0.74,0.5,1.0,10.60013485,0.93668282,72.30160522,0.834743679,0.263732493,0.435915917,52.48,-1.9025,2897303.0,90.5,2.0,3.1,2.9,7.8,1.7,6.5,8.0,5.8,6.4,9.5,7.0,5.0,7.6,6.0,6.0,5.2
Riyadh,Saudi Arabia,,,,,,,,,,,0.35,0.57,0.73,0.65,0.65,1.0,10.79781246,0.874067068,66.30514526,0.854191244,-0.168695062,0.682619512,24.65,46.71,6881000.0,,,,,,,,,,,,,,,,,
Sharjah,United Arab Emirates,,,,,,,,,,,0.35,0.53,0.84,0.6,0.49,,11.1099987,0.849181116,67.08278656,0.941345513,0.123450845,0.594502211,25.3575,55.3919,1400000.0,,,,,,,,,,,,,,,,,
Limassol,Cyprus,,,,,,,,,,,0.47,0.33,0.67,0.49,0.55,,10.40570259,0.805996239,73.70222473,0.779858291,0.043731496,0.856271744,34.675,33.0443,235056.0,,,,,,,,,,,,,,,,,
Jeddah,Saudi Arabia,,,,,,,,,,,0.34,0.48,0.7,0.58,0.69,,10.79781246,0.874067068,66.30514526,0.854191244,-0.168695062,0.682619512,21.5428,39.1728,3976000.0,,,,,,,,,,,,,,,,,
Nizhniy Novgorod,Russia,,,,,,,,,,,0.23,0.22,0.68,0.76,0.34,,10.12887192,0.903150737,64.10045624,0.729892612,-0.151153743,0.864802599,56.3269,44.0075,1264075.0,,,,,,,,,,,,,,,,,
Philadelphia,United States,,,,,,,,,,,0.53,0.57,0.38,0.69,0.52,1.0,10.92576885,0.914219022,68.29949951,0.842619538,0.149891734,0.699715316,40.0077,-75.1339,5649300.0,73.2,5.7,7.9,6.2,2.4,5.0,3.0,1.5,7.2,5.8,6.0,4.0,4.0,5.4,0.6,5.5,3.0
Bologna,Italy,,,,,,,,,,,0.51,0.36,0.55,0.79,0.54,,10.48183632,0.889878571,73.60168457,0.66465199,-0.043460999,0.873404682,44.4939,11.3428,388367.0,65.4,4.8,2.3,3.4,7.7,1.1,9.0,4.9,2.2,9.0,1.0,3.0,3.3,2.4,1.0,2.8,7.5
Brasília,Brazil,,,,,,,,,,,0.23,0.33,0.38,0.49,0.34,1.0,9.56643486,0.896723807,66.48016357,0.799804807,-0.101812392,0.770601273,-15.7744,-48.0773,3015268.0,,,,,,,,,,,,,,,,,
Islamabad,Pakistan,,,,,,,,,,,0.16,0.19,0.71,0.64,0.43,1.0,8.482727051,0.689062297,58.25313568,0.734833717,0.04489987,0.745705426,33.6989,73.0369,1365000.0,,,,,,,,,,,,,,,,,
Nicosia,Cyprus,,,,,,,,,,,0.46,0.38,0.67,0.52,0.65,,10.40570259,0.805996239,73.70222473,0.779858291,0.043731496,0.856271744,35.1725,33.365,330000.0,,,,,,,,,,,,,,,,,
Manama,Bahrain,,,,,,,,,,,0.39,0.33,0.78,0.67,0.61,1.0,10.67638016,0.876342118,68.5,0.905855775,0.13372919,0.7393471,26.2167,50.5831,157474.0,,,,,,,,,,,,,,,,,
Curitiba,Brazil,,,,,,,,,,,0.2,0.18,0.37,0.66,0.32,,9.56643486,0.896723807,66.48016357,0.799804807,-0.101812392,0.770601273,-25.4297,-49.2719,1879355.0,,,,,,,,,,,,,,,,,
Thiruvananthapuram,India,,,,,,,,,,,0.14,0.43,0.6,0.56,0.56,,8.849823952,0.592200935,60.21518707,0.881444871,0.057551607,0.772042692,8.5,76.8997,743691.0,,,,,,,,,,,,,,,,,
Pretoria,South Africa,,,,,,,,,,,0.3,0.5,0.18,0.67,0.56,,9.403370857,0.852532268,56.50601196,0.759330094,-0.109777324,0.843423843,-25.7464,28.1881,741651.0,,,,,,,,,,,,,,,,,
Campinas,Brazil,,,,,,,,,,,0.23,0.24,0.34,0.61,0.45,,9.56643486,0.896723807,66.48016357,0.799804807,-0.101812392,0.770601273,-22.9009,-47.0573,1164098.0,,,,,,,,,,,,,,,,,
San Juan,Puerto Rico,,,,,,,,,,,0.48,0.49,0.31,0.6,0.51,,,,,,,,18.4037,-66.0636,331165.0,,,,,,,,,,,,,,,,,
Turin,Italy,,,,,,,,,,,0.49,0.39,0.5,0.67,0.71,,10.48183632,0.889878571,73.60168457,0.66465199,-0.043460999,0.873404682,45.0667,7.7,870952.0,,,,,,,,,,,,,,,,,
Nur-Sultan,Kazakhstan,,,,,,,,,,,0.22,0.27,0.66,0.67,0.47,,10.11465836,0.934744895,64.60996246,0.811601937,-0.068488635,0.764490843,51.1333,71.4333,1078362.0,,,,,,,,,,,,,,,,,
Coimbatore,India,,,,,,,,,,,0.16,0.24,0.61,0.72,0.62,,8.849823952,0.592200935,60.21518707,0.881444871,0.057551607,0.772042692,11.0,76.9667,959823.0,,,,,,,,,,,,,,,,,
Detroit,United States,,,,,,,,,,,0.46,0.48,0.27,0.63,0.58,1.0,10.92576885,0.914219022,68.29949951,0.842619538,0.149891734,0.699715316,42.3834,-83.1024,3506126.0,,,,,,,,,,,,,,,,,
Medellín,Colombia,,,,,,,,,,,0.21,0.18,0.49,0.76,0.63,,9.500369072,0.884440243,67.69958496,0.836179912,-0.161235645,0.86457181,6.2447,-75.5748,2529403.0,72.0,1.6,2.6,0.4,9.8,2.5,5.3,10.0,1.1,4.3,3.8,5.0,2.4,1.0,9.8,9.9,2.6
Porto Alegre,Brazil,,,,,,,,,,,0.21,0.2,0.25,0.62,0.56,,9.56643486,0.896723807,66.48016357,0.799804807,-0.101812392,0.770601273,-30.0328,-51.23,1484941.0,,,,,,,,,,,,,,,,,
Kuwait City,Kuwait,,,,,,,,,,,0.33,0.44,0.68,0.59,0.67,1.0,11.08982468,0.846475244,66.76764679,0.872366488,-0.100184701,0.760849059,29.375,47.98,637411.0,,,,,,,,,,,,,,,,,
Lahore,Pakistan,,,,,,,,,,,0.15,0.17,0.6,0.65,0.79,,8.482727051,0.689062297,58.25313568,0.734833717,0.04489987,0.745705426,31.5497,74.3436,11021000.0,,,,,,,,,,,,,,,,,
Belo Horizonte,Brazil,,,,,,,,,,,0.21,0.16,0.36,0.63,0.53,,9.56643486,0.896723807,66.48016357,0.799804807,-0.101812392,0.770601273,-19.8917,-43.9478,5159000.0,,,,,,,,,,,,,,,,,
Guatemala City,Guatemala,,,,,,,,,,,0.31,0.17,0.38,0.62,0.72,1.0,8.924805641,0.816621482,64.8089447,0.908147573,-0.042938665,0.783237457,14.6099,-90.5252,2450212.0,,,,,,,,,,,,,,,,,
Dnipro,Ukraine,,,,,,,,,,,0.19,0.21,0.47,0.51,0.82,,9.010690689,0.878879368,64.60678101,0.663081884,-0.030933706,0.920636714,48.45,34.9833,983836.0,,,,,,,,,,,,,,,,,
Shenzhen,China,,,,,,,,,,,0.34,0.36,0.67,0.58,0.63,,9.688568115,0.798760593,69.2891922,0.898517907,-0.18142575,0.7539711,22.535,114.054,15929000.0,,,,,,,,,,,,,,,,,
Karachi,Pakistan,,,,,,,,,,,0.15,0.18,0.46,0.58,0.9,1.0,8.482727051,0.689062297,58.25313568,0.734833717,0.04489987,0.745705426,24.86,67.01,14835000.0,,,,,,,,,,,,,,,,,
Recife,Brazil,,,,,,,,,,,0.21,0.14,0.24,0.62,0.7,,9.56643486,0.896723807,66.48016357,0.799804807,-0.101812392,0.770601273,-8.0539,-34.8808,1555039.0,,,,,,,,,,,,,,,,,
Caracas,Venezuela,,,,,,,,,,,0.34,0.1,0.15,0.39,0.74,1.0,8.977793694,0.890408158,66.50534058,0.62327832,-0.169090509,0.837038398,10.5,-66.9333,1943901.0,,,,,,,,,,,,,,,,,
Rio de Janeiro,Brazil,,,,,,,,,,,0.22,0.16,0.22,0.44,0.67,1.0,9.56643486,0.896723807,66.48016357,0.799804807,-0.101812392,0.770601273,-22.9083,-43.1964,12272000.0,70.8,6.9,1.2,1.6,6.8,3.0,0.6,7.6,1.2,4.9,7.4,1.6,2.8,7.8,8.8,7.7,0.9
Dhaka,Bangladesh,,,,,,,,,,,0.23,0.15,0.35,0.41,0.93,,8.287063599,0.687292993,64.50306702,0.90062499,-0.033664726,0.661843538,23.7161,90.3961,15443000.0,,,,,,,,,,,,,,,,,
Lagos,Nigeria,,,,,,,,,,,0.24,0.07,0.35,0.47,0.88,1.0,8.57662487,0.73721689,49.86190796,0.759578407,0.033745807,0.861874342,6.45,3.4,15279000.0,,,,,,,,,,,,,,,,,
Tehran,Iran,,,,,,,,,,,0.27,0.1,0.46,0.53,0.82,,9.813719749,0.694689691,66.00614929,0.647873282,0.117891103,0.714635968,35.7,51.4167,13633000.0,,,,,,,,,,,,,,,,,
Algiers,Algeria,,,,,,,,,,,,,,,,1.0,9.537964821,0.803385139,65.90517426,0.466610909,-0.121105164,0.735485137,36.7764,3.0586,3415811.0,,,,,,,,,,,,,,,,,
Nassau,Bahamas,,,,,,,,,,,,,,,,1.0,,,,,,,25.0667,-77.3333,274400.0,,,,,,,,,,,,,,,,,
Belize City,Belize,,,,,,,,,,,,,,,,1.0,,,,,,,17.4986,-88.1886,57169.0,,,,,,,,,,,,,,,,,
Cotonou,Benin,,,,,,,,,,,,,,,,1.0,7.674319744,0.468671143,54.31246567,0.735182583,-0.003537213,0.740532577,6.4,2.52,762000.0,,,,,,,,,,,,,,,,,
La Paz,Bolivia,,,,,,,,,,,,,,,,1.0,8.851115227,0.803108692,63.6004715,0.875873327,-0.09168113,0.822606206,-16.4942,-68.1475,2867504.0,,,,,,,,,,,,,,,,,
Bangui,Central African Republic,,,,,,,,,,,,,,,,1.0,6.625160217,0.319459856,45.20000076,0.640880644,0.082410358,0.891806662,4.3732,18.5628,734350.0,,,,,,,,,,,,,,,,,
Chengdu,China,,,,,,,,,,,,,,,,1.0,9.688568115,0.798760593,69.2891922,0.898517907,-0.18142575,0.7539711,30.6636,104.0667,11309000.0,,,,,,,,,,,,,,,,,
Guangzhou,China,,,,,,,,,,,,,,,,1.0,9.688568115,0.798760593,69.2891922,0.898517907,-0.18142575,0.7539711,23.1288,113.259,20902000.0,,,,,,,,,,,,,,,,,
Shenyang,China,,,,,,,,,,,,,,,,1.0,9.688568115,0.798760593,69.2891922,0.898517907,-0.18142575,0.7539711,41.8039,123.4258,7105000.0,,,,,,,,,,,,,,,,,
Brazzaville,Congo,,,,,,,,,,,,,,,,1.0,8.536987305,0.640228093,57.92448044,0.719058514,-0.123674095,0.751779079,-4.2667,15.2833,1827000.0,,,,,,,,,,,,,,,,,
Havana,Cuba,,,,,,,,,,,,,,,,1.0,,,,,,,23.1367,-82.3589,2141652.0,,,,,,,,,,,,,,,,,
Guayaquil,Ecuador,,,,,,,,,,,,,,,,1.0,9.246058464,0.836418986,68.50003815,0.859828949,-0.127014965,0.801215112,-2.1833,-79.8833,2723665.0,,,,,,,,,,,,,,,,,
Addis Ababa,Ethiopia,,,,,,,,,,,,,,,,1.0,7.509385586,0.743307352,58.63959122,0.740795195,0.043377332,0.753690004,9.0272,38.7369,3041002.0,,,,,,,,,,,,,,,,,
Bordeaux,France,,,,,,,,,,,,,,,,1.0,10.58422279,0.937103748,73.80193329,0.825467646,-0.130641967,0.583521128,44.84,-0.58,257804.0,94.7,1.9,6.1,5.2,5.4,7.7,10.0,2.4,3.5,9.8,8.5,7.6,3.0,5.7,8.5,2.5,6.9
Libreville,Gabon,,,,,,,,,,,,,,,,1.0,9.680537224,0.787886858,59.71533966,0.704829216,-0.222261623,0.849150956,0.3901,9.4544,797003.0,,,,,,,,,,,,,,,,,
Banjul,Gambia,,,,,,,,,,,,,,,,1.0,7.321814537,0.6931687,55.0120163,0.733163178,0.343198717,0.690717816,13.4531,-16.5775,31356.0,,,,,,,,,,,,,,,,,
Conakry,Guinea,,,,,,,,,,,,,,,,1.0,7.750990391,0.637573481,54.46780014,0.706846774,0.076328471,0.761794448,9.5092,-13.7122,1667864.0,,,,,,,,,,,,,,,,,
Bissau,Guinea-Bissau,,,,,,,,,,,,,,,,1.0,,,,,,,11.8592,-15.5956,395954.0,,,,,,,,,,,,,,,,,
Port-au-Prince,Haiti,,,,,,,,,,,,,,,,1.0,7.411329269,0.593247831,55.59862518,0.537825167,0.40053457,0.684767246,18.5425,-72.3386,987310.0,,,,,,,,,,,,,,,,,
Tegucigalpa,Honduras,,,,,,,,,,,,,,,,1.0,8.424534798,0.821870148,67.19876862,0.870603263,0.086969115,0.801131904,14.0942,-87.2067,1126534.0,,,,,,,,,,,,,,,,,
Abidjan,Côte d'Ivoire,,,,,,,,,,,,,,,,1.0,8.225561142,0.658048689,49.50377274,0.727909327,-0.043991156,0.790771961,5.3364,-4.0267,4980000.0,,,,,,,,,,,,,,,,,
Ōsaka,Japan,,,,,,,,,,,,,,,,1.0,10.57968903,0.883545935,75.00096893,0.809961379,-0.246910349,0.654558063,34.6936,135.5019,14977000.0,56.9,8.5,0.7,6.5,6.3,0.9,7.8,1.1,1.3,4.5,0.9,0.5,2.0,2.0,6.0,7.2,0.7
Sapporo,Japan,,,,,,,,,,,,,,,,1.0,10.57968903,0.883545935,75.00096893,0.809961379,-0.246910349,0.654558063,43.0621,141.3544,1958756.0,,,,,,,,,,,,,,,,,
Bishkek,Kyrgyzstan,,,,,,,,,,,,,,,,1.0,8.148405075,0.887228489,64.10601044,0.909374893,0.154772058,0.888396084,42.8667,74.5667,1027200.0,,,,,,,,,,,,,,,,,
Vientiane,Laos,,,,,,,,,,,,,,,,1.0,8.79858017,0.737502217,58.70992279,0.907213569,0.11137148,0.634679317,17.9667,102.6,760000.0,,,,,,,,,,,,,,,,,
Antananarivo,Madagascar,,,,,,,,,,,,,,,,1.0,7.281685829,0.668195903,59.10542679,0.557574093,-0.011823639,0.817485631,-18.9386,47.5214,2610000.0,,,,,,,,,,,,,,,,,
Ulaanbaatar,Mongolia,,,,,,,,,,,,,,,,1.0,9.412186623,0.937142491,62.30448532,0.693351328,0.098093867,0.863511205,47.9203,106.9172,1396288.0,,,,,,,,,,,,,,,,,
Rabat,Morocco,,,,,,,,,,,,,,,,1.0,8.940313339,0.592628479,65.89624023,0.772072434,-0.240377247,0.815724611,34.0253,-6.8361,1628000.0,,,,,,,,,,,,,,,,,
Maputo,Mozambique,,,,,,,,,,,,,,,,1.0,7.069345951,0.723874032,54.20582199,0.864451885,0.032375868,0.683019102,-25.9153,32.5764,1191613.0,,,,,,,,,,,,,,,,,
Managua,Nicaragua,,,,,,,,,,,,,,,,1.0,8.493160248,0.857497036,67.50717926,0.863902867,0.020959141,0.665950119,12.15,-86.2667,1028808.0,,,,,,,,,,,,,,,,,
Dhahran,Saudi Arabia,,,,,,,,,,,,,,,,1.0,10.79781246,0.874067068,66.30514526,0.854191244,-0.168695062,0.682619512,26.2667,50.15,138135.0,,,,,,,,,,,,,,,,,
Dakar,Senegal,,,,,,,,,,,,,,,,1.0,8.118982315,0.723616004,59.59915161,0.690596163,-0.052335154,0.808785141,14.7319,-17.4572,1146053.0,,,,,,,,,,,,,,,,,
Bilbao,Spain,,,,,,,,,,,,,,,,1.0,10.46292686,0.921125412,74.40270996,0.751989543,-0.050961714,0.765859902,43.2622,-2.9533,346843.0,,,,,,,,,,,,,,,,,
Paramaribo,Suriname,,,,,,,,,,,,,,,,1.0,,,,,,,5.8667,-55.1667,223757.0,,,,,,,,,,,,,,,,,
Bern,Switzerland,,,,,,,,,,,,,,,,1.0,10.97993279,0.942846596,74.10244751,0.921336651,0.105911039,0.303728431,46.948,7.4474,133798.0,,,,,,,,,,,,,,,,,
Damascus,Syria,,,,,,,,,,,,,,,,1.0,,,,,,,33.5131,36.2919,1754000.0,,,,,,,,,,,,,,,,,
Dushanbe,Tajikistan,,,,,,,,,,,,,,,,1.0,8.024810791,0.835297108,64.10459137,0.831383407,-0.025088511,0.592076063,38.5731,68.7864,780000.0,,,,,,,,,,,,,,,,,
Dar es Salaam,Tanzania,,,,,,,,,,,,,,,,1.0,7.967665195,0.688933194,57.49607468,0.82153976,0.109668687,0.619799435,-6.8,39.2833,6698000.0,,,,,,,,,,,,,,,,,
Lomé,Togo,,,,,,,,,,,,,,,,1.0,7.357711315,0.551312625,54.71989822,0.649828613,0.002667875,0.757733464,6.1319,1.2228,837437.0,,,,,,,,,,,,,,,,,
Ashgabat,Turkmenistan,,,,,,,,,,,,,,,,1.0,9.74803257,0.958966196,62.21170807,0.826457024,0.187671542,0.883691847,37.95,58.3833,1031992.0,,,,,,,,,,,,,,,,,
Akron,United States,,,,,,,,,,,,,,,,1.0,10.92576885,0.914219022,68.29949951,0.842619538,0.149891734,0.699715316,41.0798,-81.5219,565208.0,,,,,,,,,,,,,,,,,
Allentown,United States,,,,,,,,,,,,,,,,1.0,10.92576885,0.914219022,68.29949951,0.842619538,0.149891734,0.699715316,40.5961,-75.4756,683794.0,,,,,,,,,,,,,,,,,
Amarillo,United States,,,,,,,,,,,,,,,,1.0,10.92576885,0.914219022,68.29949951,0.842619538,0.149891734,0.699715316,35.1988,-101.8311,205603.0,,,,,,,,,,,,,,,,,
Asheville,United States,,,,,,,,,,,,,,,,1.0,10.92576885,0.914219022,68.29949951,0.842619538,0.149891734,0.699715316,35.5704,-82.5536,312507.0,,,,,,,,,,,,,,,,,
Atlantic City,United States,,,,,,,,,,,,,,,,1.0,10.92576885,0.914219022,68.29949951,0.842619538,0.149891734,0.699715316,39.3797,-74.4527,237054.0,,,,,,,,,,,,,,,,,
Billings,United States,,,,,,,,,,,,,,,,1.0,10.92576885,0.914219022,68.29949951,0.842619538,0.149891734,0.699715316,45.7891,-108.5524,120728.0,,,,,,,,,,,,,,,,,
Bismarck,United States,,,,,,,,,,,,,,,,1.0,10.92576885,0.914219022,68.29949951,0.842619538,0.149891734,0.699715316,46.8144,-100.7694,98345.0,,,,,,,,,,,,,,,,,
Boise,United States,,,,,,,,,,,,,,,,1.0,10.92576885,0.914219022,68.29949951,0.842619538,0.149891734,0.699715316,43.6007,-116.2312,389280.0,,,,,,,,,,,,,,,,,
Caribou,United States,,,,,,,,,,,,,,,,1.0,10.92576885,0.914219022,68.29949951,0.842619538,0.149891734,0.699715316,46.8662,-67.9919,7593.0,,,,,,,,,,,,,,,,,
Casper,United States,,,,,,,,,,,,,,,,1.0,10.92576885,0.914219022,68.29949951,0.842619538,0.149891734,0.699715316,42.842,-106.3207,67598.0,,,,,,,,,,,,,,,,,
Chattanooga,United States,,,,,,,,,,,,,,,,1.0,10.92576885,0.914219022,68.29949951,0.842619538,0.149891734,0.699715316,35.0657,-85.2488,415501.0,,,,,,,,,,,,,,,,,
Cheyenne,United States,,,,,,,,,,,,,,,,1.0,10.92576885,0.914219022,68.29949951,0.842619538,0.149891734,0.699715316,41.1351,-104.79,79484.0,,,,,,,,,,,,,,,,,
Colorado Springs,United States,,,,,,,,,,,,,,,,1.0,10.92576885,0.914219022,68.29949951,0.842619538,0.149891734,0.699715316,38.8674,-104.7606,642413.0,,,,,,,,,,,,,,,,,
Corpus Christi,United States,,,,,,,,,,,,,,,,1.0,10.92576885,0.914219022,68.29949951,0.842619538,0.149891734,0.699715316,27.726,-97.3755,342464.0,,,,,,,,,,,,,,,,,
El Paso,United States,,,,,,,,,,,,,,,,1.0,10.92576885,0.914219022,68.29949951,0.842619538,0.149891734,0.699715316,31.8479,-106.4309,843386.0,,,,,,,,,,,,,,,,,
Elkins,United States,,,,,,,,,,,,,,,,1.0,10.92576885,0.914219022,68.29949951,0.842619538,0.149891734,0.699715316,38.9237,-79.854,10899.0,,,,,,,,,,,,,,,,,
Eugene,United States,,,,,,,,,,,,,,,,1.0,10.92576885,0.914219022,68.29949951,0.842619538,0.149891734,0.699715316,44.0563,-123.1173,273439.0,,,,,,,,,,,,,,,,,
Fairbanks,United States,,,,,,,,,,,,,,,,1.0,10.92576885,0.914219022,68.29949951,0.842619538,0.149891734,0.699715316,64.8353,-147.6534,63245.0,,,,,,,,,,,,,,,,,
Fargo,United States,,,,,,,,,,,,,,,,1.0,10.92576885,0.914219022,68.29949951,0.842619538,0.149891734,0.699715316,46.8652,-96.8292,208675.0,,,,,,,,,,,,,,,,,
Flint,United States,,,,,,,,,,,,,,,,1.0,10.92576885,0.914219022,68.29949951,0.842619538,0.149891734,0.699715316,43.0235,-83.6922,332190.0,,,,,,,,,,,,,,,,,
Fort Smith,United States,,,,,,,,,,,,,,,,1.0,10.92576885,0.914219022,68.29949951,0.842619538,0.149891734,0.699715316,35.3493,-94.3695,125354.0,,,,,,,,,,,,,,,,,
Fort Wayne,United States,,,,,,,,,,,,,,,,1.0,10.92576885,0.914219022,68.29949951,0.842619538,0.149891734,0.699715316,41.0886,-85.1437,334122.0,,,,,,,,,,,,,,,,,
Grand Junction,United States,,,,,,,,,,,,,,,,1.0,10.92576885,0.914219022,68.29949951,0.842619538,0.149891734,0.699715316,39.0876,-108.5673,139143.0,,,,,,,,,,,,,,,,,
Green Bay,United States,,,,,,,,,,,,,,,,1.0,10.92576885,0.914219022,68.29949951,0.842619538,0.149891734,0.699715316,44.515,-87.9896,207557.0,,,,,,,,,,,,,,,,,
Greensboro,United States,,,,,,,,,,,,,,,,1.0,10.92576885,0.914219022,68.29949951,0.842619538,0.149891734,0.699715316,36.0956,-79.8269,343090.0,,,,,,,,,,,,,,,,,
Juneau,United States,,,,,,,,,,,,,,,,1.0,10.92576885,0.914219022,68.29949951,0.842619538,0.149891734,0.699715316,58.4546,-134.1739,25085.0,,,,,,,,,,,,,,,,,
Lake Charles,United States,,,,,,,,,,,,,,,,1.0,10.92576885,0.914219022,68.29949951,0.842619538,0.149891734,0.699715316,30.2012,-93.2122,156181.0,,,,,,,,,,,,,,,,,
Little Rock,United States,,,,,,,,,,,,,,,,1.0,10.92576885,0.914219022,68.29949951,0.842619538,0.149891734,0.699715316,34.7256,-92.3576,439815.0,,,,,,,,,,,,,,,,,
Lubbock,United States,,,,,,,,,,,,,,,,1.0,10.92576885,0.914219022,68.29949951,0.842619538,0.149891734,0.699715316,33.5659,-101.8878,267648.0,,,,,,,,,,,,,,,,,
Macon,United States,,,,,,,,,,,,,,,,1.0,10.92576885,0.914219022,68.29949951,0.842619538,0.149891734,0.699715316,32.8065,-83.6974,153159.0,,,,,,,,,,,,,,,,,
Miami Beach,United States,,,,,,,,,,,,,,,,1.0,10.92576885,0.914219022,68.29949951,0.842619538,0.149891734,0.699715316,25.8171,-80.1396,88885.0,,,,,,,,,,,,,,,,,
St. Paul,United States,,,,,,,,,,,,,,,,1.0,10.92576885,0.914219022,68.29949951,0.842619538,0.149891734,0.699715316,44.9477,-93.104,308096.0,,,,,,,,,,,,,,,,,
Mobile,United States,,,,,,,,,,,,,,,,1.0,10.92576885,0.914219022,68.29949951,0.842619538,0.149891734,0.699715316,30.6783,-88.1162,315502.0,,,,,,,,,,,,,,,,,
New Orleans,United States,,,,,,,,,,,,,,,,1.0,10.92576885,0.914219022,68.29949951,0.842619538,0.149891734,0.699715316,30.0687,-89.9288,1020886.0,,,,,,,,,,,,,,,,,
North Platte,United States,,,,,,,,,,,,,,,,1.0,10.92576885,0.914219022,68.29949951,0.842619538,0.149891734,0.699715316,41.1266,-100.764,24098.0,,,,,,,,,,,,,,,,,
Oklahoma City,United States,,,,,,,,,,,,,,,,1.0,10.92576885,0.914219022,68.29949951,0.842619538,0.149891734,0.699715316,35.4676,-97.5136,972943.0,,,,,,,,,,,,,,,,,
Omaha,United States,,,,,,,,,,,,,,,,1.0,10.92576885,0.914219022,68.29949951,0.842619538,0.149891734,0.699715316,41.2627,-96.0522,847819.0,,,,,,,,,,,,,,,,,
Paducah,United States,,,,,,,,,,,,,,,,1.0,10.92576885,0.914219022,68.29949951,0.842619538,0.149891734,0.699715316,37.0711,-88.6436,48481.0,,,,,,,,,,,,,,,,,
Pocatello,United States,,,,,,,,,,,,,,,,1.0,10.92576885,0.914219022,68.29949951,0.842619538,0.149891734,0.699715316,42.8724,-112.4646,72878.0,,,,,,,,,,,,,,,,,
Pueblo,United States,,,,,,,,,,,,,,,,1.0,10.92576885,0.914219022,68.29949951,0.842619538,0.149891734,0.699715316,38.2705,-104.6112,143932.0,,,,,,,,,,,,,,,,,
Rapid City,United States,,,,,,,,,,,,,,,,1.0,10.92576885,0.914219022,68.29949951,0.842619538,0.149891734,0.699715316,44.0716,-103.2204,92664.0,,,,,,,,,,,,,,,,,
San Angelo,United States,,,,,,,,,,,,,,,,1.0,10.92576885,0.914219022,68.29949951,0.842619538,0.149891734,0.699715316,31.4424,-100.4506,100773.0,,,,,,,,,,,,,,,,,
Sault Ste. Marie,United States,,,,,,,,,,,,,,,,1.0,10.92576885,0.914219022,68.29949951,0.842619538,0.149891734,0.699715316,46.4817,-84.3723,12442.0,,,,,,,,,,,,,,,,,
Shreveport,United States,,,,,,,,,,,,,,,,1.0,10.92576885,0.914219022,68.29949951,0.842619538,0.149891734,0.699715316,32.4656,-93.7956,280062.0,,,,,,,,,,,,,,,,,
Sioux City,United States,,,,,,,,,,,,,,,,1.0,10.92576885,0.914219022,68.29949951,0.842619538,0.149891734,0.699715316,42.4959,-96.3901,106455.0,,,,,,,,,,,,,,,,,
Sioux Falls,United States,,,,,,,,,,,,,,,,1.0,10.92576885,0.914219022,68.29949951,0.842619538,0.149891734,0.699715316,43.5397,-96.732,187239.0,,,,,,,,,,,,,,,,,
South Bend,United States,,,,,,,,,,,,,,,,1.0,10.92576885,0.914219022,68.29949951,0.842619538,0.149891734,0.699715316,41.6767,-86.2696,280498.0,,,,,,,,,,,,,,,,,
Tallahassee,United States,,,,,,,,,,,,,,,,1.0,10.92576885,0.914219022,68.29949951,0.842619538,0.149891734,0.699715316,30.4551,-84.2526,257601.0,,,,,,,,,,,,,,,,,
St. Petersburg,United States,,,,,,,,,,,,,,,,1.0,10.92576885,0.914219022,68.29949951,0.842619538,0.149891734,0.699715316,27.7931,-82.6652,265351.0,,,,,,,,,,,,,,,,,
Toledo,United States,,,,,,,,,,,,,,,,1.0,10.92576885,0.914219022,68.29949951,0.842619538,0.149891734,0.699715316,41.6639,-83.5822,482111.0,,,,,,,,,,,,,,,,,
Topeka,United States,,,,,,,,,,,,,,,,1.0,10.92576885,0.914219022,68.29949951,0.842619538,0.149891734,0.699715316,39.0346,-95.6955,147458.0,,,,,,,,,,,,,,,,,
Tulsa,United States,,,,,,,,,,,,,,,,1.0,10.92576885,0.914219022,68.29949951,0.842619538,0.149891734,0.699715316,36.1284,-95.9042,671033.0,,,,,,,,,,,,,,,,,
Tupelo,United States,,,,,,,,,,,,,,,,1.0,10.92576885,0.914219022,68.29949951,0.842619538,0.149891734,0.699715316,34.2692,-88.7318,45466.0,,,,,,,,,,,,,,,,,
Waco,United States,,,,,,,,,,,,,,,,1.0,10.92576885,0.914219022,68.29949951,0.842619538,0.149891734,0.699715316,31.5598,-97.1881,192315.0,,,,,,,,,,,,,,,,,
West Palm Beach,United States,,,,,,,,,,,,,,,,1.0,10.92576885,0.914219022,68.29949951,0.842619538,0.149891734,0.699715316,26.7468,-80.1316,111955.0,,,,,,,,,,,,,,,,,
Wichita,United States,,,,,,,,,,,,,,,,1.0,10.92576885,0.914219022,68.29949951,0.842619538,0.149891734,0.699715316,37.6896,-97.3442,482249.0,,,,,,,,,,,,,,,,,
Wichita Falls,United States,,,,,,,,,,,,,,,,1.0,10.92576885,0.914219022,68.29949951,0.842619538,0.149891734,0.699715316,33.9072,-98.5291,99557.0,,,,,,,,,,,,,,,,,
Wilkes-Barre,United States,,,,,,,,,,,,,,,,1.0,10.92576885,0.914219022,68.29949951,0.842619538,0.149891734,0.699715316,41.2468,-75.8759,40766.0,,,,,,,,,,,,,,,,,
Yakima,United States,,,,,,,,,,,,,,,,1.0,10.92576885,0.914219022,68.29949951,0.842619538,0.149891734,0.699715316,46.5923,-120.5496,133191.0,,,,,,,,,,,,,,,,,
Youngstown,United States,,,,,,,,,,,,,,,,1.0,10.92576885,0.914219022,68.29949951,0.842619538,0.149891734,0.699715316,41.0993,-80.6463,378732.0,,,,,,,,,,,,,,,,,
Kampala,Uganda,,,,,,,,,,,,,,,,1.0,7.500389576,0.764994621,55.70820236,0.731713951,0.099487431,0.836737812,0.3136,32.5811,1659600.0,,,,,,,,,,,,,,,,,
Lille,France,,,,,,,,,,,,,,,,,10.58422279,0.937103748,73.80193329,0.825467646,-0.130641967,0.583521128,50.6278,3.0583,232787.0,100.1,1.1,7.5,4.6,6.0,9.2,10.0,5.2,5.3,9.9,8.5,7.6,3.0,3.7,7.6,2.2,8.7
Nantes,France,,,,,,,,,,,,,,,,,10.58422279,0.937103748,73.80193329,0.825467646,-0.130641967,0.583521128,47.2181,-1.5528,633690.0,96.5,3.0,5.8,2.4,6.4,5.6,10.0,6.1,8.4,4.3,8.5,7.6,3.0,5.8,7.6,2.6,9.4
Marseille,France,,,,,,,,,,,,,,,,,10.58422279,0.937103748,73.80193329,0.825467646,-0.130641967,0.583521128,43.2964,5.37,870018.0,91.8,1.5,2.8,5.0,6.2,4.6,10.0,5.6,9.6,6.8,8.5,7.6,3.0,6.2,6.0,2.4,6.0
Montpellier,France,,,,,,,,,,,,,,,,,10.58422279,0.937103748,73.80193329,0.825467646,-0.130641967,0.583521128,43.6119,3.8772,607896.0,89.7,1.2,4.6,3.1,5.7,6.4,10.0,1.9,7.8,9.5,8.5,7.6,3.0,2.1,7.6,2.3,8.4
Groningen,Netherlands,,,,,,,,,,,,,,,,,10.81271172,0.93913883,72.30091858,0.908547819,0.20761244,0.364717126,53.2204,6.58,216688.0,85.6,2.7,1.1,0.1,5.8,0.1,7.0,6.0,9.4,4.3,5.6,8.0,8.0,8.9,4.0,5.3,9.3
Seville,Spain,,,,,,,,,,,,,,,,,10.46292686,0.921125412,74.40270996,0.751989543,-0.050961714,0.765859902,41.0208,-81.8671,7812.0,82.5,0.1,1.5,7.2,8.7,3.2,8.3,8.4,1.5,4.3,2.2,6.0,7.6,5.2,7.0,7.9,3.4
Granada,Spain,,,,,,,,,,,,,,,,,10.46292686,0.921125412,74.40270996,0.751989543,-0.050961714,0.765859902,37.1781,-3.6008,232462.0,82.1,0.3,0.3,5.5,9.4,2.2,8.3,8.1,1.9,4.3,2.2,6.0,7.6,2.3,7.0,8.1,8.6
Toulouse,France,,,,,,,,,,,,,,,,,10.58422279,0.937103748,73.80193329,0.825467646,-0.130641967,0.583521128,43.6045,1.444,968638.0,81.2,2.1,3.7,4.1,6.1,8.6,10.0,2.6,5.0,4.3,8.5,7.6,3.0,6.3,7.6,1.6,0.1
Brugge,Belgium,,,,,,,,,,,,,,,,,10.6736393,0.911632538,72.00164795,0.813582063,-0.078691199,0.612297952,51.2089,3.2242,118053.0,80.3,9.7,0.5,2.6,5.3,0.2,5.5,4.4,9.9,4.3,7.2,6.5,6.6,1.9,0.3,5.4,10.0
Innsbruck,Austria,,,,,,,,,,,,,,,,,10.7428236,0.928045869,73.00250244,0.899989486,0.085429221,0.499954879,47.2683,11.3933,132493.0,77.0,9.3,1.7,1.3,5.5,3.1,8.0,4.8,6.4,4.3,4.4,2.8,6.4,2.2,3.0,6.7,7.1
Venice,Italy,,,,,,,,,,,,,,,,,10.48183632,0.889878571,73.60168457,0.66465199,-0.043460999,0.873404682,45.4397,12.3319,261905.0,67.9,1.8,1.8,8.2,7.9,1.8,9.0,5.1,2.9,4.3,1.0,3.0,3.3,4.3,3.0,3.9,6.6
